provider_code,label,address_line1,address_line2,postcode,latitude,longitude,suggestion_frequency,last_seen_on,suggestion_rank
ABRAHAMS,"ABRAHAMS · GVR Ltd, Brick Lane Mills · BD8 8JY",GVR Ltd,Brick Lane Mills,BD8 8JY,53.798853,-1.771871,2,2025-11-28,1
ABRAHAMS,"ABRAHAMS · GVR Recovery, City Road · BD8 8JY",GVR Recovery,City Road,BD8 8JY,53.798853,-1.771871,1,2026-06-15,2
ABRAHAMS,"ABRAHAMS · GVR Recovery & Storage, City Road · BD8 8JY",GVR Recovery & Storage,City Road,BD8 8JY,53.798853,-1.771871,1,2026-06-12,3
ABRAHAMS,"ABRAHAMS · GVR Recovery Ltd, City Road · BD8 8JY",GVR Recovery Ltd,City Road,BD8 8JY,53.798853,-1.771871,1,2026-05-18,4
ABRAHAMS,ABRAHAMS · 113 Highgate Road · BD13 1DT,113 Highgate Road,,BD13 1DT,53.770704,-1.826080,1,2026-04-28,5
ABRAHAMS,"ABRAHAMS · KBS Autos Yorkshire Ltd, Cemetery Road · BD7 2QY",KBS Autos Yorkshire Ltd,Cemetery Road,BD7 2QY,53.794356,-1.795121,1,2026-04-22,6
ABRAHAMS,"ABRAHAMS · Gibson Vehicle Rentals Ltd, Trust House · BD1 5LL",Gibson Vehicle Rentals Ltd,Trust House,BD1 5LL,53.791653,-1.744571,1,2026-04-17,7
ABRAHAMS,ABRAHAMS · Rochester Street · BD3 8AU,Rochester Street,,BD3 8AU,53.795149,-1.724132,1,2026-04-09,8
ABRAHAMS,"ABRAHAMS · Gibson Vehicle Rentals Ltd, 5 New Augustus Street · BD1 5LL",Gibson Vehicle Rentals Ltd,5 New Augustus Street,BD1 5LL,53.791653,-1.744571,1,2026-04-07,9
ABRAHAMS,ABRAHAMS · GVR Ltd · BD8 8JY,GVR Ltd,,BD8 8JY,53.798853,-1.771871,1,2025-03-05,10
ABRAHAMS,"ABRAHAMS · Gvr Ltd, City Road · BD8 8JY",Gvr Ltd,City Road,BD8 8JY,53.798853,-1.771871,1,2025-02-27,11
ABRAHAMS,"ABRAHAMS · Gvr, Brick Lane Mills, 296 Thornton Road · BD8 8JY",Gvr,"Brick Lane Mills, 296 Thornton Road",BD8 8JY,53.798853,-1.771871,1,2025-02-24,12
ABRAHAMS,"ABRAHAMS · GVR Ltd, 296 Thornton Road · BD8 8JY",GVR Ltd,296 Thornton Road,BD8 8JY,53.798853,-1.771871,1,2025-02-17,13
ABRAHAMS,ABRAHAMS · 17 Rufford Street · WF2 9PB,17 Rufford Street,,WF2 9PB,53.683126,-1.519663,1,2025-02-06,14
ABRAHAMS,ABRAHAMS · Ganners Garth · LS13 2PA,Ganners Garth,,LS13 2PA,53.818575,-1.628392,1,2025-02-03,15
ABRAHAMS,ABRAHAMS · Flanshaw Lane · WF2 9JF,Flanshaw Lane,,WF2 9JF,53.684238,-1.534989,1,2025-01-20,16
ACSP,ACSP · Priestley Way · RH10 9NT,Priestley Way,,RH10 9NT,51.137643,-0.168953,35,2026-06-08,1
ACSP,ACSP · Brighton Road · RH10 6AE,Brighton Road,,RH10 6AE,51.111162,-0.191087,16,2026-06-16,2
ACSP,"ACSP · Accident Specialists, Priestley Way · RH10 9NT",Accident Specialists,Priestley Way,RH10 9NT,51.137643,-0.168953,8,2026-06-01,3
ACSP,ACSP · Accident Specialists · RH10 6AE,Accident Specialists,,RH10 6AE,51.111162,-0.191087,3,2025-06-13,4
ACSP,ACSP · Dunstable Road · LU4 8BY,Dunstable Road,,LU4 8BY,51.889730,-0.441597,2,2026-01-28,5
ACSP,"ACSP · Accident Specialists, Brighton Road · RH10 6AE",Accident Specialists,Brighton Road,RH10 6AE,51.111162,-0.191087,2,2025-12-19,6
ACSP,ACSP · Antlands Lane · RH6 9TF,Antlands Lane,,RH6 9TF,51.146010,-0.124858,2,2025-09-26,7
ACSP,"ACSP · FAO The Court, C/o Accident Specialists · RH10 6AE",FAO The Court,C/o Accident Specialists,RH10 6AE,51.111162,-0.191087,2,2025-05-15,8
ACSP,ACSP · Theaklen Drive · TN38 9AZ,Theaklen Drive,,TN38 9AZ,50.868572,0.552799,2,2025-04-24,9
ACSP,"ACSP · Customise Bodyshop, Stephenson Way · RH10 1TL",Customise Bodyshop,Stephenson Way,RH10 1TL,51.113860,-0.164579,1,2026-06-16,10
ACSP,ACSP · Veefix · RH10 1TN,Veefix,,RH10 1TN,51.114492,-0.165854,1,2026-04-21,11
ACSP,ACSP · 6 Smitham Bottom Lane · CR8 3DA,6 Smitham Bottom Lane,,CR8 3DA,51.336397,-0.142111,1,2026-03-10,12
ACSP,"ACSP · Primo Bodyworks, Quarry Road · BN9 9DG",Primo Bodyworks,Quarry Road,BN9 9DG,50.786032,0.046968,1,2026-02-10,13
ACSP,ACSP · Dunstable Road · LU4 8BX,Dunstable Road,,LU4 8BX,51.889219,-0.440350,1,2026-01-06,14
ACSP,ACSP · Boswell Road · RH10 5BA,Boswell Road,,RH10 5BA,51.102282,-0.185020,1,2025-12-18,15
ACSP,"ACSP · Storage Yard, The rear of 337 Dunstable Road · LU4 8BX",Storage Yard,The rear of 337 Dunstable Road,LU4 8BX,51.889219,-0.440350,1,2025-12-10,16
ACSP,"ACSP · Elite Cat London Ltd, Troy Industrial Estate · HA1 2ED",Elite Cat London Ltd,Troy Industrial Estate,HA1 2ED,51.585229,-0.329664,1,2025-11-13,17
ACSP,"ACSP · Primo Bodywork Repairs, Unit 2A · BN9 9DG",Primo Bodywork Repairs,Unit 2A,BN9 9DG,50.786032,0.046968,1,2025-11-05,18
ACSP,ACSP · Ashdown Drive · RH10 5HB,Ashdown Drive,,RH10 5HB,51.099587,-0.188125,1,2025-09-26,19
ACSP,ACSP · Sillwood Road · BN1 2LE,Sillwood Road,,BN1 2LE,50.823761,-0.151897,1,2025-09-22,20
ACSP,ACSP · Marine Parade,Marine Parade,,,,,1,2025-09-16,21
ACSP,ACSP · Quarry Road · BN9 9DG,Quarry Road,,BN9 9DG,50.786032,0.046968,1,2025-08-27,22
ACSP,ACSP · 22 Upton Avenue · BN24 4WP,22 Upton Avenue,,BN24 4WP,,,1,2025-08-12,23
ACSP,"ACSP · TEK Express Limited, Pelham Court · RH11 9SH",TEK Express Limited,Pelham Court,RH11 9SH,51.097999,-0.205869,1,2025-08-11,24
ACSP,ACSP · Langley Drive · RH11 7TG,Langley Drive,,RH11 7TG,51.126881,-0.195174,1,2025-06-11,25
ACSP,ACSP · Richmond Crescent · SL1 1XA,Richmond Crescent,,SL1 1XA,51.510374,-0.585184,1,2025-05-20,26
ACSP,ACSP · 34-36 Theaklen Drive · TN38 9AZ,34-36 Theaklen Drive,,TN38 9AZ,50.868572,0.552799,1,2025-05-06,27
ACSP,ACSP · 102 Illett Way · RH12 0BL,102 Illett Way,,RH12 0BL,51.100631,-0.232890,1,2025-05-02,28
ACSP,ACSP · 160 Roderick Avenue · BN10 8BX,160 Roderick Avenue,,BN10 8BX,50.802920,0.003567,1,2025-04-08,29
ACSP,ACSP · Pratt Street · NW1 0BL,Pratt Street,,NW1 0BL,51.537671,-0.139132,1,2025-03-20,30
ACSP,"ACSP · M - Tech, Theaklen Drive · TN38 9AZ",M - Tech,Theaklen Drive,TN38 9AZ,50.868572,0.552799,1,2025-01-31,31
ACSP,ACSP · Chiltern Avenue · HP12 3UF,Chiltern Avenue,,HP12 3UF,51.623601,-0.779720,1,2025-01-09,32
ACSP,"ACSP · Blueline Taxis, Burcott Road · HR4 9LW",Blueline Taxis,Burcott Road,HR4 9LW,52.066318,-2.716112,1,2024-11-05,33
ACSP,ACSP · Drury Lane · TN38 9BA,Drury Lane,,TN38 9BA,50.867966,0.549241,1,2024-11-01,34
ACSP,ACSP · 120 Tamar Way · SL3 8TA,120 Tamar Way,,SL3 8TA,51.498171,-0.536723,1,2024-10-21,35
ACSP,ACSP · Troy Industrial Estate · HA1 2ED,Troy Industrial Estate,,HA1 2ED,51.585229,-0.329664,1,2024-10-18,36
ACSP,ACSP · Prestley Way · RH10 9NT,Prestley Way,,RH10 9NT,51.137643,-0.168953,1,2024-10-08,37
ACSP,ACSP · Wandsworth Bridge Road · SW6 2PD,Wandsworth Bridge Road,,SW6 2PD,51.468187,-0.189863,1,2024-07-30,38
ACSP,"ACSP · Impulse Motors, Hayes End Road · UB4 8EH",Impulse Motors,Hayes End Road,UB4 8EH,51.526369,-0.431521,1,2024-06-25,39
ACSP,"ACSP · Nightingale House, 1 -3 Brighton Road · RH10 6AE",Nightingale House,1 -3 Brighton Road,RH10 6AE,51.111162,-0.191087,1,2024-06-14,40
ALISON,"ALISON · Carnation Salvage, Essex Street · BD4 7PG",Carnation Salvage,Essex Street,BD4 7PG,53.788722,-1.739671,3,2024-12-20,1
ALISON,ALISON · Essex Street · BD4 7PG,Essex Street,,BD4 7PG,53.788722,-1.739671,2,2025-03-19,2
ALISON,"ALISON · Carnation Salvage, 6 Essex Street · BD4 7PG",Carnation Salvage,6 Essex Street,BD4 7PG,53.788722,-1.739671,2,2024-12-16,3
ALISON,ALISON · Mosedale Drive · LS14 1FT,Mosedale Drive,,LS14 1FT,53.838902,-1.449227,1,2025-06-03,4
ALISON,ALISON · Aireville Avenue · BD18 3AF,Aireville Avenue,,BD18 3AF,53.820992,-1.777386,1,2025-05-07,5
ALISON,ALISON · Spencer Road · BD7 2LE,Spencer Road,,BD7 2LE,53.784747,-1.789385,1,2025-05-07,6
ALISON,ALISON · Moorcroft Drive · WF13 4DX,Moorcroft Drive,,WF13 4DX,53.696234,-1.654126,1,2025-04-23,7
ALISON,ALISON · 29 Avenham Way · BD3 0BW,29 Avenham Way,,BD3 0BW,53.799131,-1.740503,1,2025-04-14,8
ALISON,ALISON · 28 Ash Street · HD1 6HN,28 Ash Street,,HD1 6HN,53.657713,-1.786128,1,2025-04-07,9
ALISON,ALISON · Langhedge Lane · N18 2TJ,Langhedge Lane,,N18 2TJ,51.610309,-0.068860,1,2025-02-27,10
ALISON,"ALISON · Brightbourne Ltd, 6 Essex Street · BD4 7PG",Brightbourne Ltd,6 Essex Street,BD4 7PG,53.788722,-1.739671,1,2025-02-17,11
ALISON,ALISON · 106 Long Lane · BD16 1BY,106 Long Lane,,BD16 1BY,53.839578,-1.876856,1,2025-02-07,12
ALISON,ALISON · 28 Lennon Drive · BD8 9HA,28 Lennon Drive,,BD8 9HA,53.801840,-1.778247,1,2025-01-29,13
ALISON,ALISON · Virginia Street · BD14 6JL,Virginia Street,,BD14 6JL,53.779356,-1.817516,1,2025-01-20,14
ALISON,ALISON · Legrams Avenue · BD7 2PP,Legrams Avenue,,BD7 2PP,53.785449,-1.795240,1,2025-01-17,15
ALISON,ALISON · 28 Lennon Drive · BD8 8HA,28 Lennon Drive,,BD8 8HA,,,1,2025-01-16,16
ALISON,ALISON · Kirkgate · WF1 1TS,Kirkgate,,WF1 1TS,53.680814,-1.493119,1,2025-01-14,17
ALISON,"ALISON · Holybrook Gardens, Redcar Road · BD10 0DR",Holybrook Gardens,Redcar Road,BD10 0DR,53.827632,-1.708910,1,2024-12-06,18
ALISON,ALISON · Fairfield Road · N18 2QJ,Fairfield Road,,N18 2QJ,51.615070,-0.061436,1,2024-11-26,19
ALISON,ALISON · James Place · N17 8NR,James Place,,N17 8NR,51.601699,-0.069673,1,2024-11-26,20
ALISON,ALISON · Whetley Hill · BD8 8ND,Whetley Hill,,BD8 8ND,53.803029,-1.774520,1,2024-11-26,21
ALISON,ALISON · Ketton Road · LE15 8TH,Ketton Road,,LE15 8TH,52.658191,-0.665549,1,2024-11-20,22
ALISON,ALISON · Winsford Terrace · N18 1BS,Winsford Terrace,,N18 1BS,51.614151,-0.086492,1,2024-11-20,23
ALISON,ALISON · Woodside Drive · BD16 1RF,Woodside Drive,,BD16 1RF,53.830082,-1.835390,1,2024-11-14,24
ALISON,ALISON · Derwent Mews · YO10 3DN,Derwent Mews,,YO10 3DN,53.960620,-1.039347,1,2024-11-12,25
ALISON,ALISON · 22 Garibaldi Street · BD3 8NF,22 Garibaldi Street,,BD3 8NF,53.796756,-1.711856,1,2024-11-04,26
ALISON,ALISON · Spring Bank Place · BD8 7BX,Spring Bank Place,,BD8 7BX,53.806478,-1.763933,1,2024-10-31,27
ALISON,ALISON · 4 Newman Street · BB10 1RW,4 Newman Street,,BB10 1RW,53.804014,-2.235756,1,2024-10-29,28
ALISON,ALISON · Long Lane · BD16 1BY,Long Lane,,BD16 1BY,53.839578,-1.876856,1,2024-10-24,29
ALISON,ALISON · 35 Windlass House · E16 2PW,35 Windlass House,,E16 2PW,51.499738,0.028487,1,2024-10-21,30
ALISON,ALISON · Cranbourne Road · BD9 6BH,Cranbourne Road,,BD9 6BH,53.806292,-1.805692,1,2024-10-11,31
ALISON,ALISON · 3 Seldon Street · BD5 9HH,3 Seldon Street,,BD5 9HH,53.777687,-1.776644,1,2024-10-09,32
ALL,ALL · 3 Elderfield · M28 1PU,3 Elderfield,,M28 1PU,53.506802,-2.437451,2,2025-11-28,1
ALL,ALL · St Georges Crescent · M6 8JL,St Georges Crescent,,M6 8JL,53.489094,-2.328228,2,2025-10-03,2
ALL,ALL · 58 Carnforth Road · SK4 5LE,58 Carnforth Road,,SK4 5LE,53.433486,-2.172104,2,2025-05-29,3
ALL,ALL · Duke Street,Duke Street,,,,,1,2026-01-21,4
ALL,ALL · 12 Thompson Avenue · L39 2BQ,12 Thompson Avenue,,L39 2BQ,53.567296,-2.869539,1,2026-01-12,5
ALL,ALL · Rothwell Street · BL3 6HY,Rothwell Street,,BL3 6HY,53.570892,-2.436587,1,2025-11-13,6
ALL,ALL · 62 Cotton Lane · M24 4TE,62 Cotton Lane,,M24 4TE,53.542687,-2.225333,1,2025-11-05,7
ALL,ALL · Chalvey Road East · SL1 2LX,Chalvey Road East,,SL1 2LX,51.506229,-0.603152,1,2025-09-09,8
ALL,ALL · Crete Street · OL8 1PQ,Crete Street,,OL8 1PQ,53.529890,-2.108019,1,2025-08-22,9
ALL,ALL · Bronte Avenue · BL9 9RN,Bronte Avenue,,BL9 9RN,53.576713,-2.289699,1,2025-07-23,10
ALL,ALL · 2063 Coventry Road · B26 3DY,2063 Coventry Road,,B26 3DY,52.453794,-1.791419,1,2025-07-18,11
ALL,ALL · 82 Stockfield Mount · OL9 9AS,82 Stockfield Mount,,OL9 9AS,53.539735,-2.140003,1,2025-07-17,12
ALL,ALL · 24 Alvingham Avenue · OL8 1RA,24 Alvingham Avenue,,OL8 1RA,53.528553,-2.114789,1,2025-05-13,13
ALL,ALL · Robertson House · M12 5UL,Robertson House,,M12 5UL,53.468922,-2.193187,1,2025-04-29,14
ALL,ALL · Waterloo Street · OL4 1ES,Waterloo Street,,OL4 1ES,53.536458,-2.100688,1,2025-04-24,15
ALL,ALL · Moseley Road · B12 9BS,Moseley Road,,B12 9BS,52.455551,-1.886682,1,2025-04-11,16
ALL,ALL · 30 Beverston · OL11 4JT,30 Beverston,,OL11 4JT,53.609509,-2.162936,1,2025-03-31,17
ALL,ALL · Windsor Road · OL8 4AL,Windsor Road,,OL8 4AL,53.534986,-2.126936,1,2025-03-26,18
ALL,ALL · 21 Oldham Road · M25 0BR,21 Oldham Road,,M25 0BR,53.524983,-2.259223,1,2025-03-14,19
ALL,ALL · 2 Epsley Close · M15 6DZ,2 Epsley Close,,M15 6DZ,53.465814,-2.241390,1,2025-03-11,20
ALL,ALL · Lincoln Road · LU4 8ND,Lincoln Road,,LU4 8ND,51.889256,-0.437777,1,2025-03-11,21
ALL,ALL · Gordon Road · N3 1EN,Gordon Road,,N3 1EN,51.607027,-0.198296,1,2025-02-13,22
ALL,ALL · Lower Moss Lane · M15 4HS,Lower Moss Lane,,M15 4HS,53.469859,-2.258677,1,2025-01-17,23
ALL,"ALL · Flat 17, 530 Burnage Lane · M19 1LD",Flat 17,530 Burnage Lane,M19 1LD,53.424329,-2.204722,1,2024-11-06,24
ALL,ALL · Elizabeth Avenue · SK1 3QA,Elizabeth Avenue,,SK1 3QA,53.402814,-2.154909,1,2024-09-27,25
ALL,ALL · 24 Ukraine Road · M7 3TE,24 Ukraine Road,,M7 3TE,53.502852,-2.279999,1,2024-09-05,26
ALL,ALL · 8 Pershore Road · M24 6EN,8 Pershore Road,,M24 6EN,53.560862,-2.194708,1,2024-08-21,27
ALL,ALL · 18 Alms Hill Road · M8 0PY,18 Alms Hill Road,,M8 0PY,53.505474,-2.235478,1,2024-08-16,28
ALL,ALL · Cleggs Lane · M38 9RQ,Cleggs Lane,,M38 9RQ,53.536056,-2.415678,1,2024-07-17,29
ALL,ALL · Cotton Lane · M24 4TE,Cotton Lane,,M24 4TE,53.542687,-2.225333,1,2024-07-17,30
ALL,ALL · 24 Greyswood Avenue · M8 9BB,24 Greyswood Avenue,,M8 9BB,53.505285,-2.244402,1,2024-07-16,31
ALL,ALL · 33 Ellisland Walk · M40 5LS,33 Ellisland Walk,,M40 5LS,53.504901,-2.194240,1,2024-07-09,32
ALS,"ALS · Rev It Up Repairs, 12 Baird Avenue · ML9 2PJ",Rev It Up Repairs,12 Baird Avenue,ML9 2PJ,55.723720,-3.960226,1,2025-12-05,1
ALS,ALS · 52 Wilson Place · G74 4QD,52 Wilson Place,,G74 4QD,55.776219,-4.164855,1,2025-12-01,2
ALS,"ALS · Level Up Autobody, Unit 4 Block 1 · EH48 2RX",Level Up Autobody,Unit 4 Block 1,EH48 2RX,55.891657,-3.656183,1,2025-10-16,3
ALS,"ALS · Leven Coachworks, Unit 1 Block 6 · KY8 5HD",Leven Coachworks,Unit 1 Block 6,KY8 5HD,56.201986,-3.016924,1,2025-08-05,4
ALS,ALS · 1 Dunnswood Road · G67 3EN,1 Dunnswood Road,,G67 3EN,55.969741,-3.956825,1,2025-04-15,5
ALS,"ALS · Scott Gibson Bodyshop Ltd, Unit 12, Smeaton Industrial Estate · KY1 2HE",Scott Gibson Bodyshop Ltd,"Unit 12, Smeaton Industrial Estate",KY1 2HE,56.126965,-3.152714,1,2025-04-14,6
ALS,"ALS · CD Body Repairs, Cavendish Way · KY6 2SB",CD Body Repairs,Cavendish Way,KY6 2SB,56.176808,-3.200502,1,2025-03-18,7
ALS,ALS · 307-321 Westmuir Street · G31 5HP,307-321 Westmuir Street,,G31 5HP,55.852548,-4.188175,1,2024-10-14,8
ALS,ALS · 4 Dunnswood Road · G67 3EN,4 Dunnswood Road,,G67 3EN,55.969741,-3.956825,1,2024-10-14,9
AMS,"AMS · Swade Storage, Higginshaw Lane · OL2 6HW",Swade Storage,Higginshaw Lane,OL2 6HW,53.559879,-2.103747,21,2026-06-12,1
AMS,AMS · Britannia Street · OL1 3QR,Britannia Street,,OL1 3QR,53.544529,-2.101567,9,2026-06-17,2
AMS,AMS · Higginshaw Lane · OL1 3LA,Higginshaw Lane,,OL1 3LA,,,8,2026-05-05,3
AMS,AMS · Higginshaw Lane · OL2 6HW,Higginshaw Lane,,OL2 6HW,53.559879,-2.103747,8,2025-09-23,4
AMS,AMS · Plot B1 · OL1 3LA,Plot B1,,OL1 3LA,,,4,2026-06-11,5
AMS,"AMS · Swade Soloutions Ltd, Plot B1 · OL1 3LA",Swade Soloutions Ltd,Plot B1,OL1 3LA,,,4,2026-06-09,6
AMS,AMS · Reevy Avenue · BD6 3RR,Reevy Avenue,,BD6 3RR,53.762570,-1.792105,2,2025-10-01,7
AMS,AMS · Kestrel Avenue · OL4 5HQ,Kestrel Avenue,,OL4 5HQ,53.536676,-2.086022,1,2026-04-17,8
AMS,AMS · 23 Thursby Street · BD3 9DY,23 Thursby Street,,BD3 9DY,53.794965,-1.733955,1,2026-04-13,9
AMS,AMS · 41 Northfield Road · EN8 7RG,41 Northfield Road,,EN8 7RG,51.692807,-0.032041,1,2026-04-07,10
AMS,AMS · Green Street · WA5 1TW,Green Street,,WA5 1TW,53.389092,-2.608511,1,2026-03-10,11
AMS,AMS · Dean Street · OL6 7EX,Dean Street,,OL6 7EX,53.488222,-2.105924,1,2026-03-03,12
AMS,AMS · Briarhayes Close · IP2 9AZ,Briarhayes Close,,IP2 9AZ,52.045235,1.145144,1,2026-02-13,13
AMS,"AMS · Plot 1B, Higginshaw Lane · OL1 3LA","Plot 1B, Higginshaw Lane",,OL1 3LA,,,1,2026-02-13,14
AMS,"AMS · Plot B1, Higginshaw Lane · OL1 3LA","Plot B1, Higginshaw Lane",,OL1 3LA,,,1,2026-02-12,15
AMS,AMS · Brompton Street Garage · OL4 5JB,Brompton Street Garage,,OL4 5JB,53.536221,-2.081737,1,2025-11-27,16
AMS,AMS · 623 Church Road · B33 8HA,623 Church Road,,B33 8HA,52.480759,-1.798845,1,2025-11-26,17
AMS,AMS · 142 Albert Road · WR11 4LB,142 Albert Road,,WR11 4LB,52.094076,-1.953061,1,2025-11-11,18
AMS,AMS · Horsedge Street · OL1 3DP,Horsedge Street,,OL1 3DP,53.547036,-2.112092,1,2025-10-25,19
AMS,AMS · Market Place · DY4 7AR,Market Place,,DY4 7AR,52.530675,-2.035270,1,2025-10-23,20
AMS,AMS · Redlands Road · EN3 5HW,Redlands Road,,EN3 5HW,51.664313,-0.033348,1,2025-10-22,21
AMS,AMS · Wyrley Way · B23 7UW,Wyrley Way,,B23 7UW,52.531031,-1.877186,1,2025-10-20,22
AMS,AMS · Thurland Road · OL4 1PR,Thurland Road,,OL4 1PR,53.538291,-2.089858,1,2025-10-16,23
AMS,"AMS · Swade Storage, Higginshaw Lane",Swade Storage,Higginshaw Lane,,,,1,2025-10-13,24
AMS,AMS · Catherine Street · LE4 6GB,Catherine Street,,LE4 6GB,52.649771,-1.111791,1,2025-09-18,25
AMS,AMS · Chalgrove Road · N17 0NP,Chalgrove Road,,N17 0NP,51.600009,-0.057759,1,2025-09-11,26
AMS,AMS · The Coach House,The Coach House,,,,,1,2025-09-09,27
AMS,AMS · Battlefields Lane South · PE12 7PG,Battlefields Lane South,,PE12 7PG,52.808770,0.028131,1,2025-09-04,28
AMS,"AMS · Swade Soloutions Ltd, Plot B1",Swade Soloutions Ltd,Plot B1,,,,1,2025-07-24,29
AMS,AMS · 127 Keswick Avenue · OL8 2LN,127 Keswick Avenue,,OL8 2LN,53.524621,-2.100373,1,2025-07-09,30
AMS,AMS · 34 Laxton Close · LU2 8SJ,34 Laxton Close,,LU2 8SJ,51.888047,-0.366646,1,2025-07-09,31
AMS,"AMS · Swade Storage, Higginshaw Lane · OL1 3LA",Swade Storage,Higginshaw Lane,OL1 3LA,,,1,2025-06-30,32
AMS,AMS · Ashley Mews · OL9 6QD,Ashley Mews,,OL9 6QD,53.545913,-2.129519,1,2025-06-17,33
AMS,AMS · Saxthorpe Road · LE5 1PT,Saxthorpe Road,,LE5 1PT,52.655393,-1.072338,1,2025-06-10,34
AMS,AMS · West Acres · WF11 9DU,West Acres,,WF11 9DU,53.723313,-1.259979,1,2025-06-10,35
ARIANA,"ARIANA · Q&A Motoring, 176-178 Mansell Road · UB6 9EH",Q&A Motoring,176-178 Mansell Road,UB6 9EH,51.527790,-0.357327,1,2024-08-16,1
ARIANA,"ARIANA · Ariana Autos, 192 Haymill Close · UB6 8EL",Ariana Autos,192 Haymill Close,UB6 8EL,51.533041,-0.334992,1,2024-06-10,2
ARSHEAD,ARSHEAD · 55 Nottingham Drive · OL6 8UF,55 Nottingham Drive,,OL6 8UF,53.507432,-2.093156,1,2025-02-17,1
ARSHED,ARSHED · Farmwell Lane · NG17 1BX,Farmwell Lane,,NG17 1BX,53.108729,-1.299139,1,2025-02-25,1
ARSHED,ARSHED · Garrick Street · L7 4LF,Garrick Street,,L7 4LF,53.397336,-2.941974,1,2025-02-21,2
ARSHED,ARSHED · Eccleston Avenue · M14 7AH,Eccleston Avenue,,M14 7AH,53.445586,-2.234380,1,2024-08-06,3
ARSHED,ARSHED · 3 Shirebrooke Close · NG6 0JZ,3 Shirebrooke Close,,NG6 0JZ,52.983846,-1.189432,1,2024-07-12,4
ARSHED,ARSHED · Goodiers Drive · M5 3AH,Goodiers Drive,,M5 3AH,53.476882,-2.281215,1,2024-06-26,5
AS,"AS · Premier Car Care Ltd, Unit C 301 Porters Way · B9 5RR",Premier Car Care Ltd,Unit C 301 Porters Way,B9 5RR,52.477713,-1.848198,1,2024-09-18,1
ASLS,ASLS · 29 Fairway Road · OL4 5QE,29 Fairway Road,,OL4 5QE,53.528802,-2.073229,1,2025-07-17,1
AVI,AVI · Wolverhampton Road · B68 0LH,Wolverhampton Road,,B68 0LH,52.466761,-1.984553,1,2025-03-14,1
AX,"AX · RTA Storage & Recovery, 365 Aikenhead Rd · G42 0GG",RTA Storage & Recovery,365 Aikenhead Rd,G42 0GG,,,1,2025-06-19,1
AX,"AX · I.Mac Body Repair Unit 1, Old Manse Road · G32 0TA",I.Mac Body Repair Unit 1,Old Manse Road,G32 0TA,55.850026,-4.145154,1,2025-04-15,2
AX,"AX · Ross Co Smart Repairs, Arran Road · PH1 3DZ",Ross Co Smart Repairs,Arran Road,PH1 3DZ,56.416975,-3.457932,1,2025-04-15,3
AX,"AX · G A Mann, 10-16 Glenfarg Street · G20 7QF",G A Mann,10-16 Glenfarg Street,G20 7QF,55.872728,-4.266855,1,2024-10-13,4
BC,BC · 7 Cobcroft Road · HD2 2RU,7 Cobcroft Road,,HD2 2RU,53.659977,-1.785435,3,2026-02-04,1
BC,BC · The Ringway Centre · HD1 5DG,The Ringway Centre,,HD1 5DG,53.654663,-1.784373,3,2025-05-09,2
BC,BC · Moorfield Road · WV2 4QT,Moorfield Road,,WV2 4QT,52.571706,-2.134219,2,2024-10-15,3
BC,"BC · Euro Auto Solutions Ltd, Moorfield Road · WV2 4QT",Euro Auto Solutions Ltd,Moorfield Road,WV2 4QT,52.571706,-2.134219,2,2024-10-09,4
BC,BC · 173A Dickenson Road · M13 0YN,173A Dickenson Road,,M13 0YN,53.454250,-2.210875,1,2026-06-10,5
BC,BC · 16 Odo Street · SA1 2LT,16 Odo Street,,SA1 2LT,51.634303,-3.941016,1,2026-06-05,6
BC,BC · 109 Burlington Street · OL6 7HJ,109 Burlington Street,,OL6 7HJ,53.487468,-2.104551,1,2026-06-02,7
BC,BC · 44 Moorfield Road · WV2 4QT,44 Moorfield Road,,WV2 4QT,52.571706,-2.134219,1,2026-05-29,8
BC,BC · 12 Honoria Street · HD1 6EL,12 Honoria Street,,HD1 6EL,53.659432,-1.782291,1,2026-05-20,9
BC,"BC · Flat 6, Creative Lopts, 15 Northumberland Stree · HD1 1RL","Flat 6, Creative Lopts",15 Northumberland Stree,HD1 1RL,53.649299,-1.780467,1,2026-05-20,10
BC,BC · Abbey Road · HD2 1BB,Abbey Road,,HD2 1BB,53.661524,-1.775985,1,2026-05-07,11
BC,BC · Arnold Street · HD2 2TA,Arnold Street,,HD2 2TA,53.658738,-1.791161,1,2026-05-01,12
BC,BC · Whitacre Street · HD2 1LY,Whitacre Street,,HD2 1LY,53.668493,-1.750445,1,2026-04-28,13
BC,BC · Minerva Street · HD4 5UH,Minerva Street,,HD4 5UH,53.634575,-1.836271,1,2026-04-22,14
BC,BC · Arnold Street,Arnold Street,,,,,1,2026-04-20,15
BC,BC · Springroyd Terrace · BD8 0BH,Springroyd Terrace,,BD8 0BH,53.801366,-1.794692,1,2026-03-24,16
BC,BC · Rawthorpe Lane · HD5 9NT,Rawthorpe Lane,,HD5 9NT,53.652055,-1.759983,1,2026-03-19,17
BC,"BC · Victoria Works, Waterside, Water Lane · HX3 9HG",Victoria Works,"Waterside, Water Lane",HX3 9HG,53.717353,-1.854483,1,2026-03-13,18
BC,BC · 19 Hops Drive · HD1 5AD,19 Hops Drive,,HD1 5AD,53.657104,-1.792350,1,2026-02-06,19
BC,BC · Eleanor Street · HD1 6EH,Eleanor Street,,HD1 6EH,53.657563,-1.782361,1,2025-12-23,20
BC,BC · 26 Redwing Crescent · HD3 4RL,26 Redwing Crescent,,HD3 4RL,53.642043,-1.835320,1,2025-12-04,21
BC,"BC · Huddersfield Auto Salvage, The Triangle, Paddock Foot · HD1 4RY",Huddersfield Auto Salvage,"The Triangle, Paddock Foot",HD1 4RY,53.641279,-1.799627,1,2025-11-27,22
BC,"BC · Behind Awami Store, 7 Cobcroft Road · HD2 2RU",Behind Awami Store,7 Cobcroft Road,HD2 2RU,53.659977,-1.785435,1,2025-11-25,23
BC,BC · 107 Rawthorpe Lane · HD5 9NT,107 Rawthorpe Lane,,HD5 9NT,53.652055,-1.759983,1,2025-11-21,24
BC,BC · 68 Glenfield Avenue · HD2 1UG,68 Glenfield Avenue,,HD2 1UG,53.670360,-1.749329,1,2025-11-05,25
BC,BC · 98 Moobottom Road · HD1 3JT,98 Moobottom Road,,HD1 3JT,53.639723,-1.798802,1,2025-09-22,26
BC,BC · 214 Deighton Road · HD2 1JJ,214 Deighton Road,,HD2 1JJ,53.670667,-1.763132,1,2025-09-12,27
BC,BC · Trinity Street · HD1 4DX,Trinity Street,,HD1 4DX,53.650631,-1.796633,1,2025-09-10,28
BC,BC · Pateley Crescent · HD2 7PW,Pateley Crescent,,HD2 7PW,,,1,2025-08-26,29
BC,BC · Pateley Crescent · HD2 2PW,Pateley Crescent,,HD2 2PW,53.664360,-1.788622,1,2025-08-21,30
BC,BC · Hammerton Road · HD2 2PS,Hammerton Road,,HD2 2PS,53.665470,-1.786195,1,2025-08-19,31
BC,BC · 11a Woodhouse Hill · HD2 1DL,11a Woodhouse Hill,,HD2 1DL,53.665286,-1.773755,1,2025-07-30,32
BC,BC · Cobcroft Road · HD2 2RU,Cobcroft Road,,HD2 2RU,53.659977,-1.785435,1,2025-07-08,33
BC,BC · Clare Hill · HD1 5BS,Clare Hill,,HD1 5BS,53.652652,-1.785639,1,2025-06-16,34
BC,BC · Ray Street · HD1 6BL,Ray Street,,HD1 6BL,53.652588,-1.779860,1,2025-06-11,35
BC,BC · Maple Street,Maple Street,,,,,1,2025-06-05,36
BC,BC · Otley Road · LS16 8AG,Otley Road,,LS16 8AG,53.867730,-1.592496,1,2025-06-03,37
BC,BC · 93 Annie Smith Way · HD2 2GB,93 Annie Smith Way,,HD2 2GB,53.658165,-1.792556,1,2025-05-21,38
BC,BC · 32 Fir Avenue · WF13 3BQ,32 Fir Avenue,,WF13 3BQ,53.677145,-1.674144,1,2025-05-07,39
BC,BC · Whitacre Close · HD2 1LU,Whitacre Close,,HD2 1LU,53.669167,-1.754422,1,2025-04-29,40
BC,BC · Beck Road · HD1 5DG,Beck Road,,HD1 5DG,53.654663,-1.784373,1,2025-04-14,41
BC,BC · 296 Sandstone Lane · HD4 5QN,296 Sandstone Lane,,HD4 5QN,53.633876,-1.824584,1,2025-03-28,42
BC,BC · 7 Pope Street · LE2 1DX,7 Pope Street,,LE2 1DX,,,1,2025-03-26,43
BC,BC · Cobcroft Rd · HD2 2RU,Cobcroft Rd,,HD2 2RU,53.659977,-1.785435,1,2025-03-24,44
BC,BC · 48 Spring Street · HD1 4AZ,48 Spring Street,,HD1 4AZ,53.645684,-1.789380,1,2025-03-04,45
BC,BC · Town Terrace · HD1 6PW,Town Terrace,,HD1 6PW,53.655585,-1.772264,1,2025-02-26,46
BC,BC · Ainsworth Street · BB1 6AR,Ainsworth Street,,BB1 6AR,53.750673,-2.481321,1,2025-02-24,47
BC,BC · 30 Platnam Grove · HD2 2RH,30 Platnam Grove,,HD2 2RH,53.657918,-1.795629,1,2025-02-13,48
BC,BC · 37 Smiths Avenue · HD3 4AP,37 Smiths Avenue,,HD3 4AP,53.649721,-1.812113,1,2025-02-07,49
BC,BC · Hartley Road · NG7 3AJ,Hartley Road,,NG7 3AJ,52.960517,-1.176008,1,2025-01-16,50
BC,BC · Row Street · HD4 5BB,Row Street,,HD4 5BB,53.638515,-1.801893,1,2025-01-14,51
BC,"BC · S Autos, Bulay road · HD1 3NH",S Autos,Bulay road,HD1 3NH,53.639572,-1.794780,1,2025-01-14,52
BC,BC · Walpole Road · HD4 5ET,Walpole Road,,HD4 5ET,53.631987,-1.812010,1,2025-01-09,53
BC,BC · Woodhouse Grove · HD2 1AS,Woodhouse Grove,,HD2 1AS,53.664611,-1.773456,1,2024-11-27,54
BC,BC · 51 Stirling Wood Close · HD3 3HT,51 Stirling Wood Close,,HD3 3HT,53.669024,-1.833974,1,2024-11-13,55
BC,BC · 11 Enfield Road · BS16 3QB,11 Enfield Road,,BS16 3QB,51.474348,-2.527283,1,2024-11-06,56
BC,"BC · Unit 6C, Whitacre Industrial Estate · HD2 1LY",Unit 6C,Whitacre Industrial Estate,HD2 1LY,53.668493,-1.750445,1,2024-11-05,57
BC,BC · 17 Birkby Lodge Road · HD2 2BB,17 Birkby Lodge Road,,HD2 2BB,53.656983,-1.795255,1,2024-10-17,58
BC,BC · 225 Long Lane · HD5 9SG,225 Long Lane,,HD5 9SG,53.650220,-1.750599,1,2024-10-17,59
BC,BC · George Avenue · HD2 2BJ,George Avenue,,HD2 2BJ,53.657214,-1.799082,1,2024-10-10,60
BC,BC · St Chads Road · DE23 6RP,St Chads Road,,DE23 6RP,52.909781,-1.486646,1,2024-09-25,61
BC,BC · 150 Walpole Road · HD4 5ET,150 Walpole Road,,HD4 5ET,53.631987,-1.812010,1,2024-06-18,62
BC,BC · Wakefield Road · HD5 8DY,Wakefield Road,,HD5 8DY,53.644613,-1.751040,1,2024-06-11,63
BERWICKS,BERWICKS · Siskin Drive · DE24 9PU,Siskin Drive,,DE24 9PU,52.880351,-1.497336,1,2025-12-30,1
BERWICKS,"BERWICKS · GVR Ltd, New Augustus Street · BD1 5LL",GVR Ltd,New Augustus Street,BD1 5LL,53.791653,-1.744571,1,2025-12-10,2
BLACK,"BLACK · Brewery Street, Brewery Street · B6 4JB",Brewery Street,Brewery Street,B6 4JB,52.490141,-1.893148,127,2026-06-01,1
BLACK,"BLACK · 30 Brewery Street, Aston · B6 4JB",30 Brewery Street,Aston,B6 4JB,52.490141,-1.893148,74,2026-06-19,2
BLACK,"BLACK · Samore, 30 Brewery Street · B6 4JB",Samore,30 Brewery Street,B6 4JB,52.490141,-1.893148,34,2025-07-18,3
BLACK,"BLACK · 30 Brewery Street, 30 Brewery Street · B6 4JB",30 Brewery Street,30 Brewery Street,B6 4JB,52.490141,-1.893148,25,2026-06-17,4
BLACK,"BLACK · Somstar Recovery and Storage, Moseley Street · B5 6JX",Somstar Recovery and Storage,Moseley Street,B5 6JX,52.472554,-1.890158,18,2026-06-11,5
BLACK,BLACK · Moseley Street · B5 6JX,Moseley Street,,B5 6JX,52.472554,-1.890158,8,2026-04-21,6
BLACK,"BLACK · Brewery Street, Aston · B6 4JB",Brewery Street,Aston,B6 4JB,52.490141,-1.893148,6,2026-06-22,7
BLACK,BLACK · Speedwell Road · B25 8HH,Speedwell Road,,B25 8HH,52.460514,-1.833495,6,2025-03-20,8
BLACK,BLACK · Kiln Lane · B25 8HF,Kiln Lane,,B25 8HF,52.461679,-1.831121,4,2025-09-05,9
BLACK,BLACK · Gwendolen Road · LE5 5FN,Gwendolen Road,,LE5 5FN,52.629787,-1.096430,3,2025-10-09,10
BLACK,"BLACK · Road solutions, 2 Kiln Lane · B25 8HF",Road solutions,2 Kiln Lane,B25 8HF,52.461679,-1.831121,2,2025-01-27,11
BLACK,BLACK · 195a Gwendolen Road · LE5 5FN,195a Gwendolen Road,,LE5 5FN,52.629787,-1.096430,2,2024-12-10,12
BLACK,"BLACK · Rinkway, Hillheads Road · NE25 8HR",Rinkway,Hillheads Road,NE25 8HR,55.035812,-1.454164,2,2024-09-05,13
BLACK,"BLACK · Road Solutions, Kiln Lane · B25 8HF",Road Solutions,Kiln Lane,B25 8HF,52.461679,-1.831121,2,2024-08-30,14
BLACK,BLACK · 13 Oregon Avenue · E12 5JE,13 Oregon Avenue,,E12 5JE,51.554045,0.054877,1,2026-05-01,15
BLACK,BLACK · Stoney Ridge · BD9 9PA,Stoney Ridge,,BD9 9PA,,,1,2025-12-22,16
BLACK,BLACK · 16 Thornbury Drive · BD3 8JD,16 Thornbury Drive,,BD3 8JD,53.799062,-1.713935,1,2025-12-08,17
BLACK,BLACK · 30 Brewery Street · B5 6JX,30 Brewery Street,,B5 6JX,52.472554,-1.890158,1,2025-11-26,18
BLACK,BLACK · Channing Street · OL16 5PY,Channing Street,,OL16 5PY,53.610021,-2.141672,1,2025-11-19,19
BLACK,BLACK · 11-29 Wordsworth Rd · B10 0ED,11-29 Wordsworth Rd,,B10 0ED,52.467259,-1.856550,1,2025-11-05,20
BLACK,BLACK · 30 Bewery Street · B6 4JB,30 Bewery Street,,B6 4JB,52.490141,-1.893148,1,2025-11-05,21
BLACK,BLACK · Coronation Street · M5 3RW,Coronation Street,,M5 3RW,53.476688,-2.272143,1,2025-10-16,22
BLACK,BLACK · Shawclough Trading Estate · OL12 6ND,Shawclough Trading Estate,,OL12 6ND,53.630906,-2.172107,1,2025-10-15,23
BLACK,BLACK · 2 Alcester Terrace · LS8 4LA,2 Alcester Terrace,,LS8 4LA,53.815938,-1.520685,1,2025-10-09,24
BLACK,BLACK · 3 The Mayfields · B98 7DU,3 The Mayfields,,B98 7DU,52.298138,-1.943272,1,2025-10-09,25
BLACK,BLACK · Chipperfield Road · B36 8BY,Chipperfield Road,,B36 8BY,52.502963,-1.803354,1,2025-09-25,26
BLACK,BLACK · Sladefield Road · B8 2SX,Sladefield Road,,B8 2SX,52.492105,-1.833788,1,2025-09-15,27
BLACK,BLACK · Oughton Road · B12 0DF,Oughton Road,,B12 0DF,52.465344,-1.881005,1,2025-08-20,28
BLACK,BLACK · Waldeck Road · LU1 1HG,Waldeck Road,,LU1 1HG,51.885360,-0.426739,1,2025-08-11,29
BLACK,BLACK · Douglas Road · B21 9HH,Douglas Road,,B21 9HH,52.507746,-1.932914,1,2025-08-04,30
BLACK,BLACK · 42 Ward Close · B8 3LT,42 Ward Close,,B8 3LT,52.489986,-1.835726,1,2025-07-31,31
BLACK,BLACK · Elsadene Avenue · LE4 7QT,Elsadene Avenue,,LE4 7QT,52.661855,-1.121571,1,2025-07-23,32
BLACK,BLACK · Ilsley Road · B23 6EP,Ilsley Road,,B23 6EP,52.523346,-1.848054,1,2025-07-22,33
BLACK,BLACK · Avon Street · B11 4SE,Avon Street,,B11 4SE,52.455887,-1.864651,1,2025-07-18,34
BLACK,BLACK · 31 Elsadene Avenue · LE4 7QT,31 Elsadene Avenue,,LE4 7QT,52.661855,-1.121571,1,2025-07-09,35
BLACK,BLACK · 14-A Brewery Street · B6 4JB,14-A Brewery Street,,B6 4JB,52.490141,-1.893148,1,2025-07-04,36
BLACK,BLACK · Beechwood View · LS4 2LP,Beechwood View,,LS4 2LP,53.811577,-1.580267,1,2025-07-04,37
BLACK,BLACK · Magdalen Street · NR3 1LE,Magdalen Street,,NR3 1LE,52.634062,1.296971,1,2025-07-02,38
BLACK,BLACK · Gartree Road · LE2 2FB,Gartree Road,,LE2 2FB,52.613224,-1.071575,1,2025-06-30,39
BLACK,"BLACK · St Andrews Shopping Park, 280 Coventry Road · B10 0XA",St Andrews Shopping Park,280 Coventry Road,B10 0XA,52.474283,-1.866554,1,2025-06-30,40
BLACK,"BLACK · St Andrews Shopping Park, Coventry Road · B10 0XA",St Andrews Shopping Park,Coventry Road,B10 0XA,52.474283,-1.866554,1,2025-06-30,41
BLACK,BLACK · Station Road · B6 6RA,Station Road,,B6 6RA,52.511466,-1.883445,1,2025-06-20,42
BLACK,BLACK · New Street · B66 2AJ,New Street,,B66 2AJ,52.496747,-1.963922,1,2025-06-18,43
BLACK,BLACK · Bolton Road · B10 0BG,Bolton Road,,B10 0BG,52.473101,-1.870561,1,2025-06-11,44
BLACK,BLACK · Heathfield Road · B14 7DB,Heathfield Road,,B14 7DB,52.434463,-1.890192,1,2025-06-03,45
BLACK,BLACK · 95 Catherine Street · LE4 6EG,95 Catherine Street,,LE4 6EG,52.647279,-1.114000,1,2025-05-29,46
BLACK,BLACK · 6 Hazelbeach Road · B8 3HL,6 Hazelbeach Road,,B8 3HL,52.490428,-1.843633,1,2025-05-28,47
BLACK,BLACK · 34 medlicott Road · B11 1PY,34 medlicott Road,,B11 1PY,52.460358,-1.866919,1,2025-05-13,48
BLACK,BLACK · 45-47 Golden Hillock Road · B10 0JU,45-47 Golden Hillock Road,,B10 0JU,52.467432,-1.858508,1,2025-05-12,49
BLACK,BLACK · Greenmount Street · LS11 6DE,Greenmount Street,,LS11 6DE,53.778047,-1.551557,1,2025-05-12,50
BLACK,BLACK · Parliament Square · SG14 1EX,Parliament Square,,SG14 1EX,51.795447,-0.078156,1,2025-05-12,51
BLACK,"BLACK · PFS Accident & Repair, Brougham Street · LE1 2BA",PFS Accident & Repair,Brougham Street,LE1 2BA,52.638329,-1.122929,1,2025-05-08,52
BLACK,BLACK · 24 Templars Way · BD8 0LN,24 Templars Way,,BD8 0LN,53.799559,-1.799741,1,2025-05-07,53
BLACK,BLACK · Beardwood Brow · BB2 7AX,Beardwood Brow,,BB2 7AX,53.755360,-2.506505,1,2025-04-24,54
BLACK,BLACK · Keble Grove · B26 3DD,Keble Grove,,B26 3DD,52.459231,-1.785050,1,2025-04-24,55
BLACK,BLACK · New Parks Boulevard · LE3 6QH,New Parks Boulevard,,LE3 6QH,52.640468,-1.185932,1,2025-04-24,56
BLACK,BLACK · Moat Road · LE5 5EZ,Moat Road,,LE5 5EZ,52.633360,-1.102829,1,2025-04-14,57
BLACK,BLACK · Rood End Road · B68 8SL,Rood End Road,,B68 8SL,52.496681,-1.999008,1,2025-04-14,58
BLACK,BLACK · 318 Victoria Road East · LE5 0LG,318 Victoria Road East,,LE5 0LG,52.650446,-1.094068,1,2025-04-11,59
BLACK,BLACK · Duxbury Road · LE5 3LQ,Duxbury Road,,LE5 3LQ,52.640892,-1.099083,1,2025-04-11,60
BLACK,BLACK · 42 Hollybush Close · LE5 2HZ,42 Hollybush Close,,LE5 2HZ,52.640599,-1.055670,1,2025-04-09,61
BLACK,BLACK · 5 Shaw Hill Grove · B8 3LW,5 Shaw Hill Grove,,B8 3LW,52.489932,-1.836109,1,2025-03-26,62
BLACK,BLACK · 25 Hales Crescent · B67 6QR,25 Hales Crescent,,B67 6QR,52.485496,-1.981160,1,2025-03-24,63
BLACK,BLACK · Brewery Street,Brewery Street,,,,,1,2025-03-20,64
BLACK,BLACK · Charles Road,Charles Road,,,,,1,2025-03-20,65
BLACK,"BLACK · Road Solutions, 2 Kiln Lane, Hay Mills · B25 8HF",Road Solutions,"2 Kiln Lane, Hay Mills",B25 8HF,52.461679,-1.831121,1,2025-03-19,66
BLACK,BLACK · 9 Priory Avenue · NE25 8RU,9 Priory Avenue,,NE25 8RU,55.038717,-1.454751,1,2025-03-11,67
BLACK,"BLACK · Unit 2, Perry Street · WS10 0AZ",Unit 2,Perry Street,WS10 0AZ,52.548443,-2.020022,1,2025-03-07,68
BLACK,BLACK · 4 Salwick Way · M18 7TH,4 Salwick Way,,M18 7TH,53.451946,-2.167617,1,2025-03-06,69
BLACK,BLACK · 35 Water Orton Road · B36 9ER,35 Water Orton Road,,B36 9ER,52.504965,-1.776384,1,2025-03-05,70
BLACK,BLACK · Osborn Road · B11 1TU,Osborn Road,,B11 1TU,52.458412,-1.863672,1,2025-03-05,71
BLACK,"BLACK · Unit 1, Woodwards Road · WS2 9SL","Unit 1, Woodwards Road",,WS2 9SL,52.578003,-2.007404,1,2025-02-28,72
BLACK,BLACK · 62 Wright Road · B8 1NS,62 Wright Road,,B8 1NS,52.491501,-1.853188,1,2025-02-27,73
BLACK,BLACK · 14 Barley Mow Close · B8 2BF,14 Barley Mow Close,,B8 2BF,52.494852,-1.831185,1,2025-02-21,74
BLACK,BLACK · Staveley Road · LE5 5JT,Staveley Road,,LE5 5JT,52.627198,-1.103590,1,2025-02-20,75
BLACK,"BLACK · Ghodiwala storage, 195A Gwendolen Road · LE5 5FN",Ghodiwala storage,195A Gwendolen Road,LE5 5FN,52.629787,-1.096430,1,2025-02-17,76
BLACK,BLACK · Formans Road · B11 3AX,Formans Road,,B11 3AX,52.448440,-1.853948,1,2025-02-12,77
BLACK,BLACK · Watery Lane · WS1 4HS,Watery Lane,,WS1 4HS,52.576079,-1.983808,1,2025-02-12,78
BLACK,BLACK · 184 Icknield Road,184 Icknield Road,,,,,1,2025-02-07,79
BLACK,BLACK · Evington Valley Gardens · LE5 5LW,Evington Valley Gardens,,LE5 5LW,52.626489,-1.100147,1,2025-02-07,80
BLACK,BLACK · Flat 35 Newtown Drive · B19 2UY,Flat 35 Newtown Drive,,B19 2UY,52.495227,-1.912077,1,2025-02-04,81
BLACK,BLACK · 147 Barrows Lane · B26 1SE,147 Barrows Lane,,B26 1SE,52.466912,-1.802544,1,2025-02-03,82
BLACK,BLACK · The Edg · B15 3GJ,The Edg,,B15 3GJ,,,1,2025-02-03,83
BLACK,BLACK · Fosse Way · LE7 1NG,Fosse Way,,LE7 1NG,52.695999,-1.086972,1,2025-01-28,84
BLACK,BLACK · Warwick Road · B92 7AE,Warwick Road,,B92 7AE,52.432998,-1.800562,1,2025-01-27,85
BLACK,BLACK · 29 Bardolph Street East · LE4 6EG,29 Bardolph Street East,,LE4 6EG,52.647279,-1.114000,1,2025-01-21,86
BLACK,BLACK · Unit 3. George Street · OL16 2DF,Unit 3. George Street,,OL16 2DF,53.619698,-2.151924,1,2025-01-21,87
BLACK,BLACK · Pollard Lane · BD2 4RN,Pollard Lane,,BD2 4RN,53.804827,-1.731039,1,2025-01-20,88
BLACK,BLACK · Saxoncote Avenue · NR5 9FJ,Saxoncote Avenue,,NR5 9FJ,52.636618,1.226409,1,2025-01-20,89
BLACK,BLACK · Dawlish Drive · IG3 9EG,Dawlish Drive,,IG3 9EG,51.553214,0.102284,1,2025-01-07,90
BLACK,BLACK · 26 Stoughton Street South · LE2 0SH,26 Stoughton Street South,,LE2 0SH,52.631293,-1.117277,1,2025-01-06,91
BLACK,BLACK · Clyde Court · LE1 2AU,Clyde Court,,LE1 2AU,52.637444,-1.126035,1,2024-12-18,92
BLACK,BLACK · Lodge Road · B70 8NX,Lodge Road,,B70 8NX,52.519569,-1.999833,1,2024-12-17,93
BLACK,BLACK · 25 Fleetwood Close,25 Fleetwood Close,,,,,1,2024-12-12,94
BLACK,"BLACK · Gain Lain Motors, Gain Lane · BD3 7LS",Gain Lain Motors,Gain Lane,BD3 7LS,53.805823,-1.718536,1,2024-12-12,95
BLACK,BLACK · 22 Buller Road · LE4 5GA,22 Buller Road,,LE4 5GA,52.649169,-1.125136,1,2024-12-10,96
BLACK,BLACK · 43 Valley Road · WR9 0RE,43 Valley Road,,WR9 0RE,52.262439,-2.168285,1,2024-12-10,97
BLACK,BLACK · 105 Grosvenor Road · B20 3NG,105 Grosvenor Road,,B20 3NG,52.514976,-1.909091,1,2024-12-03,98
BLACK,BLACK · 21 Ashleigh Street · PR1 4BE,21 Ashleigh Street,,PR1 4BE,53.756705,-2.681413,1,2024-12-03,99
BLACK,BLACK · 52 Lozells Road · B19 2TJ,52 Lozells Road,,B19 2TJ,52.502512,-1.903518,1,2024-12-03,100
BLACK,BLACK · 58 The Bantocks · B70 0PB,58 The Bantocks,,B70 0PB,52.532289,-2.010609,1,2024-12-03,101
BLACK,BLACK · Tame Road · B6 7DG,Tame Road,,B6 7DG,52.510912,-1.878746,1,2024-11-26,102
BLACK,BLACK · 11 Valentine Road · LE5 2GH,11 Valentine Road,,LE5 2GH,52.633528,-1.058467,1,2024-11-20,103
BLACK,BLACK · 28 Nansen Road · B8 3LD,28 Nansen Road,,B8 3LD,52.490768,-1.849243,1,2024-11-20,104
BLACK,BLACK · Little Horton Lane · BD5 9BL,Little Horton Lane,,BD5 9BL,53.777671,-1.768313,1,2024-11-14,105
BLACK,"BLACK · Samore Garages, Brewery Street · B6 4JB",Samore Garages,Brewery Street,B6 4JB,52.490141,-1.893148,1,2024-11-13,106
BLACK,"BLACK · MG Storage yard, Outer Circle Road · LN2 4LD",MG Storage yard,Outer Circle Road,LN2 4LD,53.237801,-0.509226,1,2024-11-11,107
BLACK,BLACK · 32 Heath Road · NR3 1JW,32 Heath Road,,NR3 1JW,52.639877,1.293904,1,2024-11-06,108
BLACK,BLACK · 75 Pullan Avenue · BD2 3RP,75 Pullan Avenue,,BD2 3RP,53.817188,-1.724398,1,2024-11-05,109
BLACK,BLACK · Tyburn Road · B24 0TL,Tyburn Road,,B24 0TL,52.518053,-1.817449,1,2024-10-31,110
BLACK,BLACK · 2 Hornbeam Close · LE2 4EQ,2 Hornbeam Close,,LE2 4EQ,52.605078,-1.081788,1,2024-10-29,111
BLACK,BLACK · Cressfield Way · M21 7RW,Cressfield Way,,M21 7RW,53.434028,-2.259770,1,2024-10-29,112
BLACK,BLACK · Dreadnought Close · SW19 2TA,Dreadnought Close,,SW19 2TA,51.409712,-0.182035,1,2024-10-29,113
BLACK,BLACK · Vernon Street · SA11 2PE,Vernon Street,,SA11 2PE,51.635693,-3.818848,1,2024-10-29,114
BLACK,BLACK · 6 Adelie Road · CV10 9GZ,6 Adelie Road,,CV10 9GZ,52.529742,-1.527934,1,2024-10-28,115
BLACK,BLACK · 60 Barlow Road · WS10 9QB,60 Barlow Road,,WS10 9QB,52.564266,-2.011768,1,2024-10-22,116
BLACK,BLACK · Bilston Road · WS10 7JB,Bilston Road,,WS10 7JB,52.555930,-2.028035,1,2024-10-21,117
BLACK,"BLACK · Uas, 82 - 106 Speedwell Road · B25 8HH",Uas,82 - 106 Speedwell Road,B25 8HH,52.460514,-1.833495,1,2024-10-17,118
BLACK,BLACK · Heathfield Road · B19 1HA,Heathfield Road,,B19 1HA,52.503330,-1.915744,1,2024-10-09,119
BLACK,BLACK · Heybarnes Road · B10 9HH,Heybarnes Road,,B10 9HH,52.471477,-1.830509,1,2024-10-08,120
BLACK,BLACK · 59 Lunsford Road · LE5 0HW,59 Lunsford Road,,LE5 0HW,52.647184,-1.104955,1,2024-10-07,121
BLACK,BLACK · Barker Street,Barker Street,,,,,1,2024-10-02,122
BLACK,BLACK · Pruden Avenue · WV4 6PT,Pruden Avenue,,WV4 6PT,52.554399,-2.109226,1,2024-09-30,123
BLACK,BLACK · 34 Derwent Street · LE2 0GD,34 Derwent Street,,LE2 0GD,52.632605,-1.112463,1,2024-09-27,124
BLACK,BLACK · Bowerham Road · LA1 4AS,Bowerham Road,,LA1 4AS,54.029370,-2.781690,1,2024-09-27,125
BLACK,BLACK · Barlow Moor Road · M21 7QH,Barlow Moor Road,,M21 7QH,53.431714,-2.269630,1,2024-09-20,126
BLACK,BLACK · 21 Bincomb Avenue · B26 2UY,21 Bincomb Avenue,,B26 2UY,52.461587,-1.785510,1,2024-09-17,127
BLACK,BLACK · Coventry Road · B10 0XA,Coventry Road,,B10 0XA,52.474283,-1.866554,1,2024-09-17,128
BLACK,BLACK · Lozells Road · B19 2TJ,Lozells Road,,B19 2TJ,52.502512,-1.903518,1,2024-09-13,129
BLACK,BLACK · Western Road · B64 7EW,Western Road,,B64 7EW,52.469651,-2.074231,1,2024-09-13,130
BLACK,BLACK · Cheshunt Place · B14 7BX,Cheshunt Place,,B14 7BX,52.434779,-1.891206,1,2024-09-11,131
BLACK,BLACK · 66 Sydenham Place · BD3 0LA,66 Sydenham Place,,BD3 0LA,53.807312,-1.741379,1,2024-09-04,132
BLACK,BLACK · 30 Bardolph Street East · LE4 6EG,30 Bardolph Street East,,LE4 6EG,52.647279,-1.114000,1,2024-09-02,133
BLACK,BLACK · 11 Cedar Road · LE2 1FG,11 Cedar Road,,LE2 1FG,52.626933,-1.112578,1,2024-08-21,134
BLACK,BLACK · 10 Alum Drive · B9 5PF,10 Alum Drive,,B9 5PF,52.481587,-1.834122,1,2024-08-20,135
BLACK,BLACK · Coniston Avenue · IG11 7RD,Coniston Avenue,,IG11 7RD,51.536878,0.092505,1,2024-08-12,136
BLACK,BLACK · Gossey Lane · B33 0DS,Gossey Lane,,B33 0DS,52.478985,-1.776929,1,2024-08-12,137
BLACK,BLACK · Great George Street · LS1 3EX,Great George Street,,LS1 3EX,53.801461,-1.551748,1,2024-08-12,138
BLACK,BLACK · Grenfell Terrace · BD3 7EJ,Grenfell Terrace,,BD3 7EJ,53.800046,-1.715796,1,2024-08-12,139
BLACK,BLACK · 82-106 Speedwell Road · B25 8HH,82-106 Speedwell Road,,B25 8HH,52.460514,-1.833495,1,2024-08-06,140
BLACK,BLACK · Durnford Road · LE18 2RG,Durnford Road,,LE18 2RG,52.572903,-1.108887,1,2024-07-19,141
BLACK,BLACK · Elmdon Lane · B37 7EB,Elmdon Lane,,B37 7EB,52.459583,-1.745149,1,2024-07-17,142
BLACK,BLACK · 29 Ditton Mead Close · OL12 9SH,29 Ditton Mead Close,,OL12 9SH,53.630471,-2.140138,1,2024-07-16,143
BLACK,BLACK · 79 Tuckswood Road · NR4 6BG,79 Tuckswood Road,,NR4 6BG,52.609976,1.286354,1,2024-07-16,144
BLACK,BLACK · Waverley Road · B10 0QE,Waverley Road,,B10 0QE,,,1,2024-07-05,145
BLACK,BLACK · Lower Keyham Lane · LE5 1FZ,Lower Keyham Lane,,LE5 1FZ,52.649537,-1.070732,1,2024-07-01,146
BLACK,BLACK · 7 Evington Valley Gardens · LE5 5LW,7 Evington Valley Gardens,,LE5 5LW,52.626489,-1.100147,1,2024-06-24,147
BLACK,BLACK · 91 St Margarets Road · BD7 2BY,91 St Margarets Road,,BD7 2BY,53.789714,-1.777445,1,2024-06-24,148
CC,"CC · Car 2 Go, 220 Price Street · CH41 3PS",Car 2 Go,220 Price Street,CH41 3PS,53.396858,-3.029371,1,2024-06-13,1
CHAUS,CHAUS · Marsh Road · LU3 2NL,Marsh Road,,LU3 2NL,51.902812,-0.451057,8,2026-05-18,1
CHAUS,"CHAUS · 110 Marsh Road, 110 Marsh Road · LU3 2NL",110 Marsh Road,110 Marsh Road,LU3 2NL,51.902812,-0.451057,7,2026-06-05,2
CHAUS,"CHAUS · FAO The Court, C/O Collision Haus · LU3 2NL",FAO The Court,C/O Collision Haus,LU3 2NL,51.902812,-0.451057,4,2026-06-12,3
CHAUS,CHAUS · Montacute Way · BH21 1UB,Montacute Way,,BH21 1UB,50.778128,-1.971830,1,2026-06-08,4
CHAUS,CHAUS · Dellow Street · E1 0BW,Dellow Street,,E1 0BW,51.510759,-0.056743,1,2026-04-15,5
CHAUS,CHAUS · Trinity Road · LU3 2LN,Trinity Road,,LU3 2LN,51.903893,-0.440321,1,2026-04-02,6
CHAUS,CHAUS · Fountains Road · LU3 1LX,Fountains Road,,LU3 1LX,51.898235,-0.423978,1,2026-03-26,7
CHAUS,CHAUS · 91 Napier Street East · OL8 1TS,91 Napier Street East,,OL8 1TS,53.536254,-2.125824,1,2026-02-09,8
CS,CS · Kenilworth Road · LU1 1DQ,Kenilworth Road,,LU1 1DQ,51.884513,-0.429354,4,2026-05-06,1
CS,CS · Rainbow Hill · WR3 8NN,Rainbow Hill,,WR3 8NN,52.202745,-2.210656,1,2026-05-19,2
CS,CS · Dunstable Road · LU4 8BY,Dunstable Road,,LU4 8BY,51.889730,-0.441597,1,2026-04-22,3
CS,"CS · Coopers Yard, Hitchin",Coopers Yard,Hitchin,,,,1,2026-03-19,4
CS,CS · Bicton Chase · MK10 9QQ,Bicton Chase,,MK10 9QQ,52.041797,-0.691466,1,2026-03-17,5
CS,CS · 48 Birdsfoot Lane · LU3 2DG,48 Birdsfoot Lane,,LU3 2DG,51.914968,-0.428639,1,2026-03-09,6
CS,CS · 363 Dunstable Road · LU4 8BY,363 Dunstable Road,,LU4 8BY,51.889730,-0.441597,1,2026-02-23,7
CS,CS · The Don · MK3 7PX,The Don,,MK3 7PX,51.999601,-0.763915,1,2026-02-13,8
CS,CS · 14 South Road · LU1 3UD,14 South Road,,LU1 3UD,51.873278,-0.418285,1,2026-01-26,9
CS,CS · 6 Huxtable Rise · WR4 0NX,6 Huxtable Rise,,WR4 0NX,52.198663,-2.178185,1,2026-01-12,10
CS,CS · Parham Road · RH11 0ER,Parham Road,,RH11 0ER,51.121891,-0.215160,1,2026-01-06,11
CS,CS · 223-225 Selbourne Road · LU4 8NP,223-225 Selbourne Road,,LU4 8NP,51.895867,-0.445395,1,2026-01-05,12
CS,CS · 363 Dunstable Road · LU4 8BX,363 Dunstable Road,,LU4 8BX,51.889219,-0.440350,1,2026-01-05,13
CS,CS · Kenilworth Road,Kenilworth Road,,,,,1,2025-12-10,14
CW,CW · Dickson Street · L3 7EB,Dickson Street,,L3 7EB,53.419270,-2.998374,6,2025-03-28,1
CW,CW · 11 Dickson Street · L3 7EB,11 Dickson Street,,L3 7EB,53.419270,-2.998374,2,2025-01-30,2
CW,"CW · Apollo Olympic taxis, Quaker Lane · EN19 1FB",Apollo Olympic taxis,Quaker Lane,EN19 1FB,,,1,2025-04-02,3
CW,CW · Marion Drive · WA7 4QL,Marion Drive,,WA7 4QL,53.321139,-2.738663,1,2025-03-28,4
CW,CW · 26a Cavendish Drive · L9 1HW,26a Cavendish Drive,,L9 1HW,53.450692,-2.960305,1,2025-02-28,5
CW,CW · Wareham Close · HU7 6AX,Wareham Close,,HU7 6AX,53.778445,-0.315959,1,2025-02-28,6
CW,"CW · Dean Taxis, Dukesway · NE11 0PZ",Dean Taxis,Dukesway,NE11 0PZ,54.931671,-1.625709,1,2025-02-26,7
CW,CW · Station Road North · NE28 8NR,Station Road North,,NE28 8NR,55.006302,-1.546437,1,2025-02-24,8
CW,CW · Broomlaw · NE9 6RT,Broomlaw,,NE9 6RT,54.932676,-1.578428,1,2025-02-18,9
CW,CW · Stockbridge Lane · L36 3SA,Stockbridge Lane,,L36 3SA,53.423966,-2.858952,1,2025-02-17,10
CW,"CW · Asda Superstore, Huyton Lane · L36 7TX",Asda Superstore,Huyton Lane,L36 7TX,53.412805,-2.837017,1,2025-01-24,11
CW,CW · Llanilar · SY23 4NZ,Llanilar,,SY23 4NZ,52.356649,-4.024282,1,2025-01-24,12
DFD,"DFD · SMC Ltd, Tarren Way South · CH46 4TP",SMC Ltd,Tarren Way South,CH46 4TP,53.408049,-3.117448,161,2026-06-16,1
DFD,"DFD · Car 2 Go, 220 Price Street · CH41 3PS",Car 2 Go,220 Price Street,CH41 3PS,53.396858,-3.029371,92,2026-06-11,2
DFD,"DFD · Shaun Marnell Ltd, SMC Buildings · CH46 4TP",Shaun Marnell Ltd,SMC Buildings,CH46 4TP,53.408049,-3.117448,30,2026-06-12,3
DFD,DFD · 219 Slade Lane · M19 2EX,219 Slade Lane,,M19 2EX,53.442729,-2.198955,22,2026-06-16,4
DFD,DFD · 220 Price Street · CH41 3PS,220 Price Street,,CH41 3PS,53.396858,-3.029371,11,2026-02-25,5
DFD,DFD · Slade Lane · M19 2EX,Slade Lane,,M19 2EX,53.442729,-2.198955,8,2026-03-30,6
DFD,"DFD · Car 2 Go, 200 Price Street · CH41 3PS",Car 2 Go,200 Price Street,CH41 3PS,53.396858,-3.029371,7,2025-03-03,7
DFD,DFD · Camphill Industrial Estate · KT14 6EW,Camphill Industrial Estate,,KT14 6EW,51.343766,-0.497937,6,2026-03-20,8
DFD,DFD · Vittoria Street · CH41 3NT,Vittoria Street,,CH41 3NT,53.398996,-3.028535,6,2026-03-04,9
DFD,DFD · Tarran Way South · CH46 4TP,Tarran Way South,,CH46 4TP,53.408049,-3.117448,5,2026-03-09,10
DFD,"DFD · Vittoria Motors, Vittoria Street · CH41 3NT",Vittoria Motors,Vittoria Street,CH41 3NT,53.398996,-3.028535,4,2026-02-19,11
DFD,"DFD · Vms, Vittoria Street · CH41 3NT",Vms,Vittoria Street,CH41 3NT,53.398996,-3.028535,3,2025-09-22,12
DFD,"DFD · Vms, Cleveland Street · CH41 3QJ",Vms,Cleveland Street,CH41 3QJ,53.397841,-3.027996,3,2025-03-04,13
DFD,"DFD · Car 2 Go, Price Street · CH41 3PS",Car 2 Go,Price Street,CH41 3PS,53.396858,-3.029371,3,2025-02-25,14
DFD,"DFD · Spray Systems, Withens Lane · CH44 1DE",Spray Systems,Withens Lane,CH44 1DE,53.421885,-3.037514,2,2026-01-07,15
DFD,"DFD · Perry Motors, Corporation Road · CH41 3NG",Perry Motors,Corporation Road,CH41 3NG,53.398868,-3.026637,2,2025-11-25,16
DFD,"DFD · Car2go Northwest, Price Street · CH41 3PS",Car2go Northwest,Price Street,CH41 3PS,53.396858,-3.029371,2,2025-05-06,17
DFD,DFD · Durban Road West · WD18 7DR,Durban Road West,,WD18 7DR,51.654557,-0.406931,2,2024-09-05,18
DFD,DFD · Withens Lane · CH44 1DE,Withens Lane,,CH44 1DE,53.421885,-3.037514,1,2026-06-18,19
DFD,"DFD · Fix Auto Wrexham, 25 Abenbury Way · LL13 9UZ",Fix Auto Wrexham,25 Abenbury Way,LL13 9UZ,53.046094,-2.936220,1,2026-06-09,20
DFD,"DFD · Brasenose Garage & Car Hire, Brasenose Road · L20 8HJ",Brasenose Garage & Car Hire,Brasenose Road,L20 8HJ,53.440579,-2.994447,1,2026-05-08,21
DFD,DFD · Forwood Road · CH62 7BT,Forwood Road,,CH62 7BT,53.328987,-2.980663,1,2026-05-05,22
DFD,DFD · Whippenhall Road,Whippenhall Road,,,,,1,2026-04-16,23
DFD,DFD · Greenwood Drive · E4 9HL,Greenwood Drive,,E4 9HL,51.612196,-0.001082,1,2026-04-14,24
DFD,DFD · 25 Loretto Drive · CH49 6LH,25 Loretto Drive,,CH49 6LH,53.389863,-3.096176,1,2026-03-11,25
DFD,DFD · 1 Oakdene Close · CH62 6DR,1 Oakdene Close,,CH62 6DR,53.314874,-2.980655,1,2026-02-19,26
DFD,DFD · Camphill Road · KT14 6EW,Camphill Road,,KT14 6EW,51.343766,-0.497937,1,2026-02-12,27
DFD,"DFD · Vittoria Motor Services, 1-41 Vittoria Street · CH41 3NT",Vittoria Motor Services,1-41 Vittoria Street,CH41 3NT,53.398996,-3.028535,1,2026-02-09,28
DFD,DFD · Combe Road,Combe Road,,,,,1,2026-01-29,29
DFD,DFD · 6 Combe Road · WD18 6LD,6 Combe Road,,WD18 6LD,51.644990,-0.415621,1,2026-01-22,30
DFD,"DFD · Jubilee Villas, Jubilee Road",Jubilee Villas,Jubilee Road,,,,1,2026-01-19,31
DFD,"DFD · Vms, 1-41 Vittoria Street · CH41 3NT",Vms,1-41 Vittoria Street,CH41 3NT,53.398996,-3.028535,1,2025-11-28,32
DFD,DFD · Heyville Road · CH63 2JA,Heyville Road,,CH63 2JA,53.351921,-3.020987,1,2025-10-22,33
DFD,DFD · 19 Martin Street · LN5 7TX,19 Martin Street,,LN5 7TX,53.220404,-0.538139,1,2025-09-15,34
DFD,DFD · Eleanor Road · CH43 7QW,Eleanor Road,,CH43 7QW,53.398585,-3.077179,1,2025-09-05,35
DFD,"DFD · 219 Slade Lane, Manchester",219 Slade Lane,Manchester,,,,1,2025-08-06,36
DFD,"DFD · Car Repair Centre CRC Ltd, Unit 10 · KT14 6EW",Car Repair Centre CRC Ltd,Unit 10,KT14 6EW,51.343766,-0.497937,1,2025-07-28,37
DFD,DFD · Whippendell Road · WD18 7PD,Whippendell Road,,WD18 7PD,51.650902,-0.413304,1,2025-07-25,38
DFD,DFD · Cleveland Street · CH41 3QJ,Cleveland Street,,CH41 3QJ,53.397841,-3.027996,1,2025-07-02,39
DFD,DFD · Station Road · CH61 0HL,Station Road,,CH61 0HL,53.348950,-3.133960,1,2025-06-25,40
DFD,DFD · Car 2 Go · CH41 3PS,Car 2 Go,,CH41 3PS,53.396858,-3.029371,1,2025-06-17,41
DFD,DFD · Whippendell Road · WD18 7LU,Whippendell Road,,WD18 7LU,51.655222,-0.403640,1,2025-05-22,42
DFD,DFD · Withens Lane · CH44 1BB,Withens Lane,,CH44 1BB,53.421925,-3.037982,1,2025-05-20,43
DFD,DFD · Price Street · CH41 3PS,Price Street,,CH41 3PS,53.396858,-3.029371,1,2025-05-15,44
DFD,"DFD · Car Claims, Leasowe Road",Car Claims,Leasowe Road,,,,1,2025-04-25,45
DFD,"DFD · Brasenose Garage, 64-84 Brasenose Road · L20 8HJ",Brasenose Garage,64-84 Brasenose Road,L20 8HJ,53.440579,-2.994447,1,2025-04-16,46
DFD,"DFD · Car2Go Northwest, 220 Price Street · CH41 3PS",Car2Go Northwest,220 Price Street,CH41 3PS,53.396858,-3.029371,1,2025-04-15,47
DFD,DFD · Princes Avenue · WD18 7QR,Princes Avenue,,WD18 7QR,51.651312,-0.422368,1,2025-03-27,48
DFD,DFD · Slade Lane · M19 2AQ,Slade Lane,,M19 2AQ,53.446650,-2.198070,1,2025-03-26,49
DFD,DFD · Chapel Street · M19 3QA,Chapel Street,,M19 3QA,53.444165,-2.189431,1,2025-03-24,50
DFD,"DFD · Car Claim SMK Automotive, Leasowe Road · CH45 8LW",Car Claim SMK Automotive,Leasowe Road,CH45 8LW,53.420359,-3.081882,1,2025-03-21,51
DFD,DFD · Luton Road · LU5 4RF,Luton Road,,LU5 4RF,51.889091,-0.512445,1,2025-03-10,52
DFD,DFD · Gammons Lane · WD24 5JD,Gammons Lane,,WD24 5JD,51.677436,-0.409194,1,2025-02-28,53
DFD,"DFD · Car 2 Go, 220 Price Street",Car 2 Go,220 Price Street,,,,1,2025-02-12,54
DFD,"DFD · Car Park, Delph Lane · L35 7JF",Car Park,Delph Lane,L35 7JF,53.423160,-2.784114,1,2025-02-11,55
DFD,"DFD · Parkers Motorbodies, Drury Street · M19 3PQ",Parkers Motorbodies,Drury Street,M19 3PQ,53.443777,-2.190544,1,2025-02-06,56
DFD,"DFD · JC Paint Body Repair, New Chester Road · CH42 1LB",JC Paint Body Repair,New Chester Road,CH42 1LB,53.375709,-3.009080,1,2025-02-03,57
DFD,DFD · London Road · RM7 9EL,London Road,,RM7 9EL,51.574811,0.166782,1,2025-01-31,58
DFD,DFD · Unit 10,Unit 10,,,,,1,2025-01-21,59
DFD,DFD · Bellingdon Road · HP5 2NN,Bellingdon Road,,HP5 2NN,51.711698,-0.613847,1,2025-01-14,60
DFD,DFD · Elgin Drive · CH45 7PR,Elgin Drive,,CH45 7PR,53.427540,-3.033137,1,2025-01-07,61
DFD,DFD · Durban Road West · WD18 7DS,Durban Road West,,WD18 7DS,51.654624,-0.407926,1,2024-12-20,62
DFD,DFD · Winsford Cross Shopping Centre · CW7 1AS,Winsford Cross Shopping Centre,,CW7 1AS,,,1,2024-12-20,63
DFD,"DFD · Car 2 Go, 220 Price Street · CH43 1PS",Car 2 Go,220 Price Street,CH43 1PS,,,1,2024-11-20,64
DFD,DFD · Ship Street,Ship Street,,,,,1,2024-11-04,65
DFD,"DFD · Car2Go (Northwest) Ltd, 220 Price Street · CH41 3PS",Car2Go (Northwest) Ltd,220 Price Street,CH41 3PS,53.396858,-3.029371,1,2024-10-18,66
DFD,"DFD · North West Recovery, Cheadle Avenue · L13 3AE",North West Recovery,Cheadle Avenue,L13 3AE,53.416135,-2.923160,1,2024-09-25,67
DFD,"DFD · Maes Cynbryd, Llanddulas · LL22 8HF",Maes Cynbryd,Llanddulas,LL22 8HF,53.289931,-3.639224,1,2024-09-19,68
DFD,"DFD · Rnw, Prenton Way · CH43 3DU",Rnw,Prenton Way,CH43 3DU,53.364972,-3.066308,1,2024-09-19,69
DFD,DFD · Durban Road · WD18 7DT,Durban Road,,WD18 7DT,51.654566,-0.409576,1,2024-09-13,70
DFD,"DFD · Vittoria Motors, Cleveland Street · CH41 3NT",Vittoria Motors,Cleveland Street,CH41 3NT,53.398996,-3.028535,1,2024-09-13,71
DFD,DFD · Devonshire Road · CH48 7HR,Devonshire Road,,CH48 7HR,53.367369,-3.171255,1,2024-09-10,72
DFD,DFD · 24 Bangor Road · CH45 8JD,24 Bangor Road,,CH45 8JD,53.426723,-3.073887,1,2024-09-04,73
DFD,DFD · Pioneer Way · WD18 6TA,Pioneer Way,,WD18 6TA,51.646462,-0.411450,1,2024-07-24,74
DFD,DFD · A41 bypass · WD25 8JS,A41 bypass,,WD25 8JS,51.663666,-0.361251,1,2024-07-23,75
DFD,"DFD · Flat 40, 28 Chatsworth Road · CH42 1NY",Flat 40,28 Chatsworth Road,CH42 1NY,53.372219,-3.003992,1,2024-07-08,76
DFD,DFD · Durban Road East · WD18 0RN,Durban Road East,,WD18 0RN,51.653605,-0.404405,1,2024-07-02,77
DFD,DFD · Gammons Lane · WD24 5JH,Gammons Lane,,WD24 5JH,51.678634,-0.409977,1,2024-07-02,78
DFD,DFD · Tarren Way Industrial Estate · CH46 4TP,Tarren Way Industrial Estate,,CH46 4TP,53.408049,-3.117448,1,2024-07-01,79
DFD,"DFD · Unit 3, Road Five · CW7 3QX",Unit 3,Road Five,CW7 3QX,53.196075,-2.491608,1,2024-06-26,80
DFD,DFD · Rembrant Way · WD18 7DP,Rembrant Way,,WD18 7DP,51.651355,-0.415572,1,2024-06-25,81
DJS,"DJS · Toyota Lincoln, Cheshire Road · LN6 3SR",Toyota Lincoln,Cheshire Road,LN6 3SR,53.205727,-0.615973,1,2025-01-29,1
ELMI,"ELMI · Q & A Motoring, Mansell Road · UB6 9EH",Q & A Motoring,Mansell Road,UB6 9EH,51.527790,-0.357327,1,2024-09-03,1
FRAZ,FRAZ · Britannia Street · OL1 3QR,Britannia Street,,OL1 3QR,53.544529,-2.101567,1,2024-09-10,1
FRZ,"FRZ · Britannia Street, Britannia Street · OL1 3QR",Britannia Street,Britannia Street,OL1 3QR,53.544529,-2.101567,202,2026-06-22,1
FRZ,FRZ · Higginshaw Lane · OL2 6HW,Higginshaw Lane,,OL2 6HW,53.559879,-2.103747,20,2026-03-04,2
FRZ,"FRZ · Swade Storage, Higginshaw Lane · OL2 6HW",Swade Storage,Higginshaw Lane,OL2 6HW,53.559879,-2.103747,13,2026-05-01,3
FRZ,"FRZ · Swade Soloutions Ltd, Plot B1 · OL1 3LA",Swade Soloutions Ltd,Plot B1,OL1 3LA,,,4,2026-06-09,4
FRZ,FRZ · Brittania Street · OL1 3QR,Brittania Street,,OL1 3QR,53.544529,-2.101567,4,2025-10-29,5
FRZ,FRZ · Higginshaw Lane · OL1 3LA,Higginshaw Lane,,OL1 3LA,,,1,2026-05-29,6
FRZ,"FRZ · Swade Storage, Higginshaw Lane · OL1 3LA",Swade Storage,Higginshaw Lane,OL1 3LA,,,1,2025-05-23,7
FRZ,FRZ · Taylor Street · WA4 6HD,Taylor Street,,WA4 6HD,53.371557,-2.597545,1,2024-09-10,8
FRZ,"FRZ · Swade Solutions, Higginshaw Lane · OL2 6HW",Swade Solutions,Higginshaw Lane,OL2 6HW,53.559879,-2.103747,1,2024-07-19,9
FW,"FW · Somstar Recovery and Storage, Moseley Street · B5 6JX",Somstar Recovery and Storage,Moseley Street,B5 6JX,52.472554,-1.890158,168,2026-06-22,1
FW,"FW · Somstar Recovery & Storage, Moseley Street · B5 6JX",Somstar Recovery & Storage,Moseley Street,B5 6JX,52.472554,-1.890158,119,2025-12-11,2
FW,FW · Moseley Street · B5 6JX,Moseley Street,,B5 6JX,52.472554,-1.890158,85,2026-05-05,3
FW,"FW · Veetec Motor Group, Unit 4, Martinbridge Industrial Estate · EN1 1SP",Veetec Motor Group,"Unit 4, Martinbridge Industrial Estate",EN1 1SP,51.645403,-0.058218,52,2025-11-11,4
FW,"FW · Veetec Motor Group, Lincoln Road · EN1 1SP",Veetec Motor Group,Lincoln Road,EN1 1SP,51.645403,-0.058218,19,2025-04-17,5
FW,"FW · Coventry Road, Coventry Road · B10 0UF",Coventry Road,Coventry Road,B10 0UF,52.471356,-1.861969,11,2025-05-15,6
FW,"FW · Somstar Recovery, Moseley Street · B5 6JX",Somstar Recovery,Moseley Street,B5 6JX,52.472554,-1.890158,10,2025-02-04,7
FW,FW · Lumina Way · EN1 1FS,Lumina Way,,EN1 1FS,51.644048,-0.058955,9,2025-07-23,8
FW,FW · Lincoln Road · EN1 1SP,Lincoln Road,,EN1 1SP,51.645403,-0.058218,8,2025-09-10,9
FW,"FW · The Servicing Master Centre, 145 Cardiff Road · RG1 8JF",The Servicing Master Centre,145 Cardiff Road,RG1 8JF,51.461063,-0.982414,6,2026-03-18,10
FW,"FW · Vetec Motor Group, Lincoln Road · EN1 1SP",Vetec Motor Group,Lincoln Road,EN1 1SP,51.645403,-0.058218,2,2025-01-24,11
FW,FW · Beach Brook Close · B11 4QF,Beach Brook Close,,B11 4QF,52.456622,-1.870330,1,2026-05-06,12
FW,FW · Unit 1 Avon Street · B11 4SE,Unit 1 Avon Street,,B11 4SE,52.455887,-1.864651,1,2026-04-20,13
FW,FW · Whitmore Road · B10 0NR,Whitmore Road,,B10 0NR,52.470521,-1.862943,1,2026-04-16,14
FW,FW · Stockleys Road · OX3 9RH,Stockleys Road,,OX3 9RH,51.771094,-1.227692,1,2026-03-31,15
FW,FW · Barn Way · HA9 9NW,Barn Way,,HA9 9NW,51.569380,-0.279496,1,2026-02-13,16
FW,FW · Cardiff Road · RG1 8JF,Cardiff Road,,RG1 8JF,51.461063,-0.982414,1,2026-02-13,17
FW,"FW · HS Recovery & Storage Ltd, William Street · M12 5FX",HS Recovery & Storage Ltd,William Street,M12 5FX,53.475020,-2.217185,1,2026-01-30,18
FW,FW · Little Oaks Road · B6 6JX,Little Oaks Road,,B6 6JX,52.506977,-1.890102,1,2026-01-26,19
FW,FW · Birchfield Road · B19 1SU,Birchfield Road,,B19 1SU,52.503497,-1.899524,1,2026-01-15,20
FW,"FW · Dunsford House, Kingsnympton Park · KT2 7RT","Dunsford House, Kingsnympton Park",,KT2 7RT,51.421822,-0.278945,1,2026-01-06,21
FW,"FW · Brindley Mazda Wolverhampton, Stafford Street · WV1 1NT",Brindley Mazda Wolverhampton,Stafford Street,WV1 1NT,52.593246,-2.125324,1,2025-11-21,22
FW,"FW · City Management Services Uk Ltd, Bordesley Green · B9 4SU",City Management Services Uk Ltd,Bordesley Green,B9 4SU,52.477369,-1.853352,1,2025-11-20,23
FW,FW · 12 Bendbow Rise · LE3 1QA,12 Bendbow Rise,,LE3 1QA,52.624564,-1.183109,1,2025-11-18,24
FW,"FW · Mm Car Hire Ltd, 22 Denville Crescent · B9 5TP",Mm Car Hire Ltd,22 Denville Crescent,B9 5TP,52.483763,-1.828062,1,2025-11-10,25
FW,FW · Avon Street · B11 4SE,Avon Street,,B11 4SE,52.455887,-1.864651,1,2025-10-17,26
FW,FW · 8 Dickens Avenue · CT1 1EQ,8 Dickens Avenue,,CT1 1EQ,51.288698,1.103916,1,2025-10-06,27
FW,"FW · River Reach Business Centre, Gartons Way · SW11 3SX",River Reach Business Centre,Gartons Way,SW11 3SX,51.465908,-0.180897,1,2025-08-26,28
FW,FW · 59 Hurdlow Avenue · B18 5QQ,59 Hurdlow Avenue,,B18 5QQ,52.492761,-1.919534,1,2025-06-20,29
FW,FW · 24 Kenton Avenue · UB1 3QG,24 Kenton Avenue,,UB1 3QG,51.514381,-0.366270,1,2025-05-22,30
FW,FW · Coventry Road · B10 0UG,Coventry Road,,B10 0UG,52.470130,-1.859073,1,2025-05-20,31
FW,FW · Hale End Close · HA4 8EQ,Hale End Close,,HA4 8EQ,51.581437,-0.410789,1,2025-05-13,32
FW,FW · London Road · SM3 9AE,London Road,,SM3 9AE,51.372474,-0.226700,1,2025-05-06,33
FW,FW · Base Point Business Park · B60 3ET,Base Point Business Park,,B60 3ET,52.315929,-2.057425,1,2025-04-23,34
FW,FW · Coventry Road,Coventry Road,,,,,1,2025-04-23,35
FW,"FW · Hammonds Flleet Care Ltd, Victoria Road · B72 8HY",Hammonds Flleet Care Ltd,Victoria Road,B72 8HY,,,1,2025-04-22,36
FW,FW · Priorygate Way · B9 5NF,Priorygate Way,,B9 5NF,52.481438,-1.850953,1,2025-04-16,37
FW,"FW · Unit 4, Martinbridge Industrial Estate · EN1 1SP","Unit 4, Martinbridge Industrial Estate",,EN1 1SP,51.645403,-0.058218,1,2025-04-07,38
FW,FW · 26 Manor Court · HA9 7AX,26 Manor Court,,HA9 7AX,51.552106,-0.295538,1,2025-04-02,39
FW,"FW · Mercedes Benz World, Brooklands Drive",Mercedes Benz World,Brooklands Drive,,,,1,2025-04-01,40
FW,FW · Coventry Road · B10 0XA,Coventry Road,,B10 0XA,52.474283,-1.866554,1,2025-03-25,41
FW,FW · Keevil Drive · SW19 6TA,Keevil Drive,,SW19 6TA,51.448039,-0.217788,1,2025-03-25,42
FW,FW · Highters Road · B14 4NA,Highters Road,,B14 4NA,52.410500,-1.875932,1,2025-03-17,43
FW,"FW · Unit 4 Martinbridge Industrial Estate, Lincoln Road · EN1 1SP",Unit 4 Martinbridge Industrial Estate,Lincoln Road,EN1 1SP,51.645403,-0.058218,1,2025-03-13,44
FW,FW · 5 Whitmore Road · B10 0NR,5 Whitmore Road,,B10 0NR,52.470521,-1.862943,1,2025-03-11,45
FW,FW · Edgehill Road · LE4 9ED,Edgehill Road,,LE4 9ED,52.655731,-1.095083,1,2025-02-27,46
FW,"FW · Veetec Motor Group, Unit 4, Lincoln Road · EN1 1SP",Veetec Motor Group,"Unit 4, Lincoln Road",EN1 1SP,51.645403,-0.058218,1,2025-02-24,47
FW,FW · West Midlands Freeport · B26 3QD,West Midlands Freeport,,B26 3QD,52.448766,-1.752730,1,2025-02-24,48
FW,"FW · Vetec Motor Group Limited, Lincoln Road · EN1 1SP",Vetec Motor Group Limited,Lincoln Road,EN1 1SP,51.645403,-0.058218,1,2025-01-29,49
FW,FW · 5 Weasdale Court · GU21 3RN,5 Weasdale Court,,GU21 3RN,51.325458,-0.598818,1,2025-01-27,50
FW,"FW · Martinbridge Industrial Estate, Lincoln Road · EN1 1SP",Martinbridge Industrial Estate,Lincoln Road,EN1 1SP,51.645403,-0.058218,1,2025-01-21,51
FW,FW · Beilby Road · B30 3BU,Beilby Road,,B30 3BU,52.422295,-1.917720,1,2025-01-17,52
FW,"FW · Somstar Recpvery & Storage, Moseley Street · B5 6JX",Somstar Recpvery & Storage,Moseley Street,B5 6JX,52.472554,-1.890158,1,2025-01-14,53
FW,FW · Coventry Road · B10 0SW,Coventry Road,,B10 0SW,52.471565,-1.863647,1,2025-01-07,54
FW,FW · Bentley Avenue · TS23 4BU,Bentley Avenue,,TS23 4BU,54.611821,-1.266758,1,2025-01-02,55
FW,FW · 185-189 Easton Road · BS5 0HQ,185-189 Easton Road,,BS5 0HQ,51.461978,-2.565329,1,2024-12-19,56
FW,FW · Boulters Close · SL1 9BQ,Boulters Close,,SL1 9BQ,51.510732,-0.627295,1,2024-12-11,57
FW,FW · Saffron Lane · LE2 6SD,Saffron Lane,,LE2 6SD,52.601864,-1.139913,1,2024-12-09,58
FW,FW · 7 Chester Gardens,7 Chester Gardens,,,,,1,2024-12-03,59
FW,FW · Maple Close · B21 9JZ,Maple Close,,B21 9JZ,52.508990,-1.938732,1,2024-12-02,60
FW,"FW · B Z Recovery, Avon Street · B11 4SE",B Z Recovery,Avon Street,B11 4SE,52.455887,-1.864651,1,2024-11-27,61
FW,FW · Wills Street · B19 1PP,Wills Street,,B19 1PP,52.500138,-1.915352,1,2024-11-26,62
FW,FW · Hilmarton Road,Hilmarton Road,,,,,1,2024-11-22,63
FW,FW · 115B Doncaster Road · LE4 6JN,115B Doncaster Road,,LE4 6JN,52.649848,-1.116047,1,2024-11-21,64
FW,FW · Lingard Close · B7 5DJ,Lingard Close,,B7 5DJ,52.493652,-1.871135,1,2024-11-21,65
FW,FW · Bell Barn Road · B15 2AA,Bell Barn Road,,B15 2AA,52.470719,-1.909844,1,2024-11-01,66
FW,FW · Lozells Street · B19 2AT,Lozells Street,,B19 2AT,52.501238,-1.906570,1,2024-11-01,67
FW,FW · Myddleton Road · N22 8NG,Myddleton Road,,N22 8NG,51.606335,-0.119242,1,2024-11-01,68
FW,"FW · Somstar Recovery & Storage, Moseley Street · BJ5 6JS",Somstar Recovery & Storage,Moseley Street,BJ5 6JS,,,1,2024-10-31,69
FW,FW · Nightingale Road · N9 8PT,Nightingale Road,,N9 8PT,51.633917,-0.044534,1,2024-10-25,70
FW,"FW · Somstar Recovery & Storage, MoseleyStreet · B5 6JS",Somstar Recovery & Storage,MoseleyStreet,B5 6JS,,,1,2024-10-25,71
FW,FW · St Saviours Estate · SE1 3DN,St Saviours Estate,,SE1 3DN,51.497901,-0.076423,1,2024-10-22,72
FW,"FW · Flat 6, 56 Clarence Road · N22 8PL",Flat 6,56 Clarence Road,N22 8PL,51.604683,-0.118790,1,2024-10-21,73
FW,FW · 5 Ontario Close · LE1 2JE,5 Ontario Close,,LE1 2JE,52.641744,-1.125284,1,2024-10-15,74
FW,FW · Peterborough Road · SW6 3BZ,Peterborough Road,,SW6 3BZ,51.469788,-0.198626,1,2024-10-15,75
FW,"FW · Somstar Recover & Storage, Moseley Street · B5 6JX",Somstar Recover & Storage,Moseley Street,B5 6JX,52.472554,-1.890158,1,2024-10-01,76
FW,"FW · Star City Storage, Bordesley Green · B9 4SU",Star City Storage,Bordesley Green,B9 4SU,52.477369,-1.853352,1,2024-09-23,77
FW,"FW · St Andrew's Shopping Park, Coventry Road · B10 0XA",St Andrew's Shopping Park,Coventry Road,B10 0XA,52.474283,-1.866554,1,2024-09-17,78
FW,FW · 17 Lingfield Gardens · B34 6TQ,17 Lingfield Gardens,,B34 6TQ,52.496026,-1.784384,1,2024-09-10,79
FW,FW · Churchill Way · M6 5BU,Churchill Way,,M6 5BU,53.484635,-2.279201,1,2024-09-10,80
FW,"FW · Flat 19, Ayley Croft · EN1 1XX",Flat 19,Ayley Croft,EN1 1XX,51.643404,-0.061310,1,2024-09-10,81
FW,FW · Parliament Street · B10 0QJ,Parliament Street,,B10 0QJ,52.469956,-1.863976,1,2024-09-09,82
FW,"FW · The Grange, 160 Grange Road · B10 9QY",The Grange,160 Grange Road,B10 9QY,52.473083,-1.855089,1,2024-09-04,83
FW,FW · Riverdene Road · IG1 2EA,Riverdene Road,,IG1 2EA,51.555159,0.068762,1,2024-08-28,84
FW,FW · Old Ford Road · E2 9PJ,Old Ford Road,,E2 9PJ,51.529975,-0.053978,1,2024-08-27,85
FW,FW · 40 Whyteville Road · E7 9LR,40 Whyteville Road,,E7 9LR,51.544168,0.028184,1,2024-08-21,86
FW,FW · 8 Beryl Street · EN3 4FS,8 Beryl Street,,EN3 4FS,51.645491,-0.047287,1,2024-08-21,87
FW,FW · Beryl Street · EN3 4FS,Beryl Street,,EN3 4FS,51.645491,-0.047287,1,2024-08-19,88
FW,"FW · Flat 115 Twinhell House, Stapleton Road · BS5 0QB",Flat 115 Twinhell House,Stapleton Road,BS5 0QB,51.462282,-2.571278,1,2024-08-12,89
FW,"FW · Somstar Recovery & Stprage, Moseley Street · B5 6JX",Somstar Recovery & Stprage,Moseley Street,B5 6JX,52.472554,-1.890158,1,2024-08-12,90
FW,FW · Wellington Road North · SK4 5BP,Wellington Road North,,SK4 5BP,53.425470,-2.176587,1,2024-08-07,91
FW,FW · Whitmore Road · B10 0NP,Whitmore Road,,B10 0NP,52.469262,-1.862491,1,2024-08-02,92
FW,FW · Darlington Road · OL11 2LL,Darlington Road,,OL11 2LL,53.599476,-2.157397,1,2024-07-08,93
FW,"FW · Somstar Storage & Recovery, Moseley Street · B5 6JX",Somstar Storage & Recovery,Moseley Street,B5 6JX,52.472554,-1.890158,1,2024-06-28,94
FW,FW · Luckington Road · B27 0UW,Luckington Road,,B27 0UW,,,1,2024-06-26,95
FW,FW · The Concourse · N9 0TY,The Concourse,,N9 0TY,51.624651,-0.058976,1,2024-06-14,96
FW,"FW · Loddon Cars, 220 Wharfedale Road · RG41 5TP",Loddon Cars,220 Wharfedale Road,RG41 5TP,51.436812,-0.883643,1,2024-06-07,97
GG,GG · Kent Road · YO8 4YF,Kent Road,,YO8 4YF,53.789724,-1.082475,1,2025-03-05,1
GG,GG · Wandle Road · SM4 6AE,Wandle Road,,SM4 6AE,51.396467,-0.181539,1,2025-02-19,2
GG,GG · Morden Road · CR4 4DF,Morden Road,,CR4 4DF,51.398422,-0.175985,1,2025-02-10,3
GGP,"GGP · Swade Storage, Higginshaw Lane · OL2 6HW",Swade Storage,Higginshaw Lane,OL2 6HW,53.559879,-2.103747,15,2025-04-09,1
GGP,GGP · Higginshaw Lane · OL2 6HW,Higginshaw Lane,,OL2 6HW,53.559879,-2.103747,12,2025-04-29,2
GGP,GGP · 165 Chamber Road · OL8 1AA,165 Chamber Road,,OL8 1AA,53.531486,-2.121284,2,2025-02-19,3
GGP,"GGP · Top Gear Auto, West Hendon Broadway · NW9 7AA",Top Gear Auto,West Hendon Broadway,NW9 7AA,51.576007,-0.237608,2,2024-12-30,4
GGP,GGP · Britannia Street · OL1 3QR,Britannia Street,,OL1 3QR,53.544529,-2.101567,2,2024-08-30,5
GGP,GGP · Whixley Way · LE5 1BF,Whixley Way,,LE5 1BF,52.661685,-1.068642,1,2025-07-23,6
GGP,GGP · 94 Tiverton Road · CV2 3DJ,94 Tiverton Road,,CV2 3DJ,52.420277,-1.462007,1,2025-05-23,7
GGP,GGP · Netherfield Close · WF10 5QW,Netherfield Close,,WF10 5QW,53.711626,-1.381785,1,2025-05-21,8
GGP,GGP · 58 Greesenhall Road · SW18 5QJ,58 Greesenhall Road,,SW18 5QJ,51.450497,-0.207344,1,2025-05-07,9
GGP,GGP · Shaw Road · OL1 3JA,Shaw Road,,OL1 3JA,53.549956,-2.103481,1,2025-04-17,10
GGP,GGP · Edgware Road · NW9 5AL,Edgware Road,,NW9 5AL,51.595447,-0.260419,1,2025-04-08,11
GGP,GGP · Mitre Street · BL1 6QJ,Mitre Street,,BL1 6QJ,53.602461,-2.436142,1,2025-04-07,12
GGP,GGP · Hill Drive · SK9 3AP,Hill Drive,,SK9 3AP,53.344871,-2.203996,1,2025-03-27,13
GGP,GGP · 42 Mapledon Road · M9 4QG,42 Mapledon Road,,M9 4QG,53.511785,-2.200454,1,2025-03-12,14
GGP,GGP · 78 Lime Green Road · OL8 3PE,78 Lime Green Road,,OL8 3PE,53.512378,-2.129297,1,2025-03-07,15
GGP,GGP · Felinfoel Road · SA15 3JQ,Felinfoel Road,,SA15 3JQ,51.687377,-4.159915,1,2025-03-06,16
GGP,GGP · Skein Road · SP11 6WX,Skein Road,,SP11 6WX,51.223030,-1.455535,1,2025-03-06,17
GGP,GGP · Teignmouth Gardens · UB6 8BX,Teignmouth Gardens,,UB6 8BX,51.533723,-0.322264,1,2025-03-06,18
GGP,GGP · 16 Cranford Lane · TW5 9ET,16 Cranford Lane,,TW5 9ET,51.483337,-0.383626,1,2025-03-04,19
GGP,GGP · Broad Street · B61 8LW,Broad Street,,B61 8LW,52.339864,-2.067158,1,2025-02-24,20
GGP,GGP · Firbank Green · BD2 3PR,Firbank Green,,BD2 3PR,53.810978,-1.716952,1,2025-01-29,21
GGP,GGP · Hanswick Close · LU2 9EQ,Hanswick Close,,LU2 9EQ,51.892548,-0.391828,1,2025-01-21,22
GGP,GGP · 136 prestwich Road · WD18 6LA,136 prestwich Road,,WD18 6LA,51.644242,-0.415545,1,2025-01-10,23
GGP,GGP · 71 Olive Hill Road · B62 8JN,71 Olive Hill Road,,B62 8JN,52.469112,-2.035044,1,2025-01-10,24
GGP,GGP · Barnsley Close · GU12 5RH,Barnsley Close,,GU12 5RH,51.284029,-0.713833,1,2025-01-08,25
GGP,GGP · Beech Avenue · B62 8LQ,Beech Avenue,,B62 8LQ,52.470791,-2.041699,1,2024-12-18,26
GGP,"GGP · Top Gear Auto, 176 West Hendon Broadway · NW9 7AA",Top Gear Auto,176 West Hendon Broadway,NW9 7AA,51.576007,-0.237608,1,2024-12-12,27
GGP,GGP · Tunstall Road · OL4 1PS,Tunstall Road,,OL4 1PS,53.538003,-2.090446,1,2024-12-09,28
GGP,"GGP · SMGB Trading Ltd, Storage Yard 1A, The Fairway · NW7 3HS",SMGB Trading Ltd,"Storage Yard 1A, The Fairway",NW7 3HS,51.627391,-0.256425,1,2024-12-04,29
GGP,GGP · Blackwater Trading Estate · GU12 4DJ,Blackwater Trading Estate,,GU12 4DJ,51.239566,-0.743323,1,2024-11-27,30
GGP,GGP · 32 Howard Road · NG19 6AY,32 Howard Road,,NG19 6AY,53.151248,-1.212916,1,2024-11-26,31
GGP,"GGP · Rose Hill Bowling Club Car Park, Rose Hill · SM1 3HH",Rose Hill Bowling Club Car Park,Rose Hill,SM1 3HH,51.378311,-0.194358,1,2024-11-08,32
GGP,GGP · 55 Parkway · BD5 8QB,55 Parkway,,BD5 8QB,53.771831,-1.747013,1,2024-11-01,33
GGP,GGP · 93 Lindisfarne Road · RM8 2QX,93 Lindisfarne Road,,RM8 2QX,51.556205,0.124956,1,2024-11-01,34
GGP,GGP · Somersby Drive · BL7 9PX,Somersby Drive,,BL7 9PX,53.620109,-2.427525,1,2024-10-29,35
GGP,GGP · Woodlands Village · WF1 5NH,Woodlands Village,,WF1 5NH,53.668410,-1.488803,1,2024-10-29,36
GGP,GGP · Trading Estate · LE2 0UB,Trading Estate,,LE2 0UB,52.634732,-1.118035,1,2024-10-17,37
GGP,GGP · Travis Street · M1 2NG,Travis Street,,M1 2NG,53.477607,-2.222577,1,2024-10-17,38
GGP,GGP · Goldsmith Avenue · E12 6QD,Goldsmith Avenue,,E12 6QD,51.545001,0.052638,1,2024-10-10,39
GGP,GGP · Dunton Road · E10 7AF,Dunton Road,,E10 7AF,51.573482,-0.013703,1,2024-10-09,40
GGP,GGP · 316 Hornby Street · BL9 5DS,316 Hornby Street,,BL9 5DS,53.604000,-2.293906,1,2024-10-08,41
GGP,GGP · Deanshut Road · OL8 2PN,Deanshut Road,,OL8 2PN,53.523255,-2.099329,1,2024-10-04,42
GGP,GGP · Wibsey Park Avenue · BD6 3QT,Wibsey Park Avenue,,BD6 3QT,53.762182,-1.791136,1,2024-10-04,43
GGP,GGP · 86 Vulcan Close · WA2 0HN,86 Vulcan Close,,WA2 0HN,53.413996,-2.561868,1,2024-10-01,44
GGP,"GGP · Top Gear Auto Ltd, West Hendon Broadway · NW9 7AA",Top Gear Auto Ltd,West Hendon Broadway,NW9 7AA,51.576007,-0.237608,1,2024-09-23,45
GGP,GGP · 3 Sandford · PE3 7LH,3 Sandford,,PE3 7LH,52.588296,-0.275938,1,2024-09-17,46
GGP,GGP · 30 Filey Spur · SL1 9JX,30 Filey Spur,,SL1 9JX,51.506504,-0.621054,1,2024-09-17,47
GGP,"GGP · Automotive Repair System, Unit 1, Shire Lane · BR6 7GZ",Automotive Repair System,"Unit 1, Shire Lane",BR6 7GZ,51.350897,0.051277,1,2024-09-16,48
GGP,GGP · Birdsfoot Lane · LU3 2HT,Birdsfoot Lane,,LU3 2HT,51.912129,-0.431544,1,2024-09-13,49
GGP,GGP · Waterside Drive · SL3 6AD,Waterside Drive,,SL3 6AD,51.508659,-0.549961,1,2024-09-13,50
GGP,GGP · 4 Sand Banks · BL1 7LP,4 Sand Banks,,BL1 7LP,53.611808,-2.431311,1,2024-08-29,51
GGP,GGP · Harlow Park Drive · HG2 0AR,Harlow Park Drive,,HG2 0AR,53.979379,-1.557558,1,2024-08-28,52
GGP,GGP · Oval Road North · RM10 9EP,Oval Road North,,RM10 9EP,51.531646,0.160840,1,2024-08-28,53
GGP,GGP · 708 Oldham Road · M35 9FH,708 Oldham Road,,M35 9FH,53.516797,-2.147182,1,2024-08-21,54
GGP,GGP · Acre Road · KT2 6EG,Acre Road,,KT2 6EG,51.414764,-0.298696,1,2024-08-20,55
GGP,GGP · Box Lane · LG11 0QS,Box Lane,,LG11 0QS,,,1,2024-08-12,56
GGP,GGP · 124 Wigan Road · PR7 6JW,124 Wigan Road,,PR7 6JW,53.668014,-2.675758,1,2024-08-07,57
GGP,GGP · 4A Dawlish Road · E10 6QD,4A Dawlish Road,,E10 6QD,51.564717,-0.009079,1,2024-08-07,58
GGP,"GGP · Top Gear Auto Ltd, 176 West Hendon Broadway · NW9 7AA",Top Gear Auto Ltd,176 West Hendon Broadway,NW9 7AA,51.576007,-0.237608,1,2024-08-06,59
GGP,"GGP · Unit 2A, Bertha Street · BL1 8AH",Unit 2A,Bertha Street,BL1 8AH,53.594009,-2.439394,1,2024-07-26,60
GGP,"GGP · The Mansfield Group, Unit 1 · L33 7YT",The Mansfield Group,Unit 1,L33 7YT,,,1,2024-07-24,61
GGP,"GGP · Swade Storage, Higginshaw Lane · OL1 3LA",Swade Storage,Higginshaw Lane,OL1 3LA,,,1,2024-07-23,62
GGP,GGP · 36 Radcliffe Road · BL9 9JY,36 Radcliffe Road,,BL9 9JY,53.581942,-2.301562,1,2024-07-22,63
GGP,"GGP · Top Gear Auto, Unit 9 South, West Hendon Broadway · NW9 7AA",Top Gear Auto,"Unit 9 South, West Hendon Broadway",NW9 7AA,51.576007,-0.237608,1,2024-07-11,64
GGP,GGP · 50 Hurst Street · BL9 7ES,50 Hurst Street,,BL9 7ES,53.590804,-2.283254,1,2024-07-10,65
GGP,GGP · 144 Wandle Road · SM4 6AE,144 Wandle Road,,SM4 6AE,51.396467,-0.181539,1,2024-07-05,66
GGP,"GGP · Top Gear Auto Ltd, Unit 9, South, 176 West Hendon Broadway · NW9 7AA",Top Gear Auto Ltd,"Unit 9, South, 176 West Hendon Broadway",NW9 7AA,51.576007,-0.237608,1,2024-06-24,67
GGP,GGP · 30 Cambridge Court · DL14 9SR,30 Cambridge Court,,DL14 9SR,54.641650,-1.689082,1,2024-06-19,68
GGP,GGP · 7 Quebec Avenue · SS1 2DE,7 Quebec Avenue,,SS1 2DE,51.537673,0.717041,1,2024-06-12,69
GGP,GGP · Pinewood Place · WF11 0QH,Pinewood Place,,WF11 0QH,53.702645,-1.259371,1,2024-06-04,70
GILDEAS,"GILDEAS · Hatties Autos, Chapelhall",Hatties Autos,Chapelhall,,,,1,2025-11-20,1
HJ,"HJ · Easdons Accident Repair Centre, Well Street · PA1 2QE",Easdons Accident Repair Centre,Well Street,PA1 2QE,55.848609,-4.440946,1,2024-10-30,1
HTU,"HTU · ITV Solutions, Cotton Brook Road · DE23 8YJ",ITV Solutions,Cotton Brook Road,DE23 8YJ,52.903060,-1.468914,94,2026-06-09,1
HTU,HTU · Cotton Brook Road · DE23 8YJ,Cotton Brook Road,,DE23 8YJ,52.903060,-1.468914,3,2025-06-16,2
HTU,"HTU · ITV Solutions, Unit 22, Cotton Brook Road · DE23 8YJ",ITV Solutions,"Unit 22, Cotton Brook Road",DE23 8YJ,52.903060,-1.468914,3,2025-01-08,3
HTU,HTU · City Link · NG2 4LA,City Link,,NG2 4LA,52.950159,-1.139040,2,2025-09-30,4
HTU,HTU · Sherriff Street · WR4 9AB,Sherriff Street,,WR4 9AB,52.194993,-2.207064,1,2025-11-11,5
HTU,HTU · 20 Timor Court · DE24 1AH,20 Timor Court,,DE24 1AH,52.908016,-1.445732,1,2025-11-03,6
HTU,"HTU · USA Motors, Unit 4 · NG7 5NR",USA Motors,Unit 4,NG7 5NR,52.968420,-1.178835,1,2025-11-03,7
HTU,HTU · 44a Amesbury Circus · NG8 6DA,44a Amesbury Circus,,NG8 6DA,52.983146,-1.208317,1,2025-10-08,8
HTU,HTU · Trent South Industrial Park · NG2 4EQ,Trent South Industrial Park,,NG2 4EQ,52.945724,-1.120183,1,2025-10-08,9
HTU,HTU · 2 Middleton Boulevard · NG8 1BH,2 Middleton Boulevard,,NG8 1BH,52.945881,-1.190200,1,2025-05-14,10
HTU,HTU · 3 Whitaker Road · DE23 6AR,3 Whitaker Road,,DE23 6AR,52.910137,-1.489869,1,2025-05-13,11
HTU,"HTU · ITV Solutions, Cotton Brook Road · DE23 8XJ",ITV Solutions,Cotton Brook Road,DE23 8XJ,,,1,2025-04-16,12
HTU,HTU · 70 Parkdale Road · NG3 7GN,70 Parkdale Road,,NG3 7GN,52.961627,-1.104511,1,2025-03-19,13
HTU,HTU · 22 Cambridge Street · DE23 8HG,22 Cambridge Street,,DE23 8HG,52.907145,-1.473741,1,2025-02-26,14
HTU,HTU · 48 Cummings Street · DE23 6WW,48 Cummings Street,,DE23 6WW,52.910010,-1.479209,1,2025-02-25,15
HTU,HTU · Crewe Street · DE23 8QL,Crewe Street,,DE23 8QL,52.905676,-1.479097,1,2025-02-19,16
HTU,"HTU · City Link Services, Trent South Industrial Park · NG2 4EQ",City Link Services,Trent South Industrial Park,NG2 4EQ,52.945724,-1.120183,1,2025-02-04,17
HTU,HTU · 3 Ravens Grove · WF13 3QH,3 Ravens Grove,,WF13 3QH,53.683291,-1.651098,1,2025-01-13,18
HTU,HTU · 33 Holborn Avenue · NG2 4LY,33 Holborn Avenue,,NG2 4LY,52.953873,-1.125630,1,2025-01-10,19
HTU,"HTU · City Link Vehicle Services, Trent South Industrial Park · NG2 4EQ",City Link Vehicle Services,Trent South Industrial Park,NG2 4EQ,52.945724,-1.120183,1,2025-01-09,20
HTU,HTU · 14 Helston Drive · NG8 6JN,14 Helston Drive,,NG8 6JN,52.974394,-1.223876,1,2025-01-08,21
HTU,HTU · 57 Oakdale Road · NG3 7EL,57 Oakdale Road,,NG3 7EL,52.959937,-1.109384,1,2025-01-08,22
HVL,HVL · Wheatland Business Park · CH44 7ER,Wheatland Business Park,,CH44 7ER,53.407986,-3.026270,2,2026-01-23,1
HVL,HVL · Wellington Road · CH45 2NG,Wellington Road,,CH45 2NG,53.438642,-3.049619,1,2025-03-19,2
HVL,HVL · Brancote Road · CH43 6TL,Brancote Road,,CH43 6TL,53.390406,-3.059936,1,2024-12-11,3
KB,"KB · Scott Gibson Bodyshop Ltd, Unit 12, Smeaton Industrial Estate · KY1 2HE",Scott Gibson Bodyshop Ltd,"Unit 12, Smeaton Industrial Estate",KY1 2HE,56.126965,-3.152714,2,2025-11-04,1
KB,KB · Green Street · KA8 8AD,Green Street,,KA8 8AD,55.467346,-4.633397,2,2025-10-16,2
KB,KB · Dellingburn Street · PA15 4RN,Dellingburn Street,,PA15 4RN,55.943760,-4.748963,2,2025-06-04,3
KB,KB · 38 Belmont Road · KA7 2PF,38 Belmont Road,,KA7 2PF,55.446500,-4.618407,1,2025-11-25,4
KB,"KB · Simon Repairs, 18 Whittle Place · KA11 4HR",Simon Repairs,18 Whittle Place,KA11 4HR,55.612009,-4.642123,1,2025-11-25,5
KB,"KB · GM Body Shop, Dellingburn Street · PA15 4TW",GM Body Shop,Dellingburn Street,PA15 4TW,55.943395,-4.753214,1,2025-11-24,6
KB,KB · 2 Nisbett Street · ML6 8RJ,2 Nisbett Street,,ML6 8RJ,55.844676,-3.943647,1,2025-11-14,7
KB,KB · 15 Green Street · KA8 8AD,15 Green Street,,KA8 8AD,55.467346,-4.633397,1,2025-11-11,8
KB,"KB · Myles Coachworks, 15 Green Street · KA8 8AD",Myles Coachworks,15 Green Street,KA8 8AD,55.467346,-4.633397,1,2025-11-10,9
KB,"KB · Premier 1 Accident Repair Centre, Boundary Road · KA8 9DJ",Premier 1 Accident Repair Centre,Boundary Road,KA8 9DJ,55.482265,-4.603686,1,2025-11-07,10
KB,"KB · Paint Tec Smart Repair, InvereskMills Industrial Park · EH21 7PQ",Paint Tec Smart Repair,InvereskMills Industrial Park,EH21 7PQ,55.938755,-3.059308,1,2025-11-03,11
KB,"KB · Simons Repairs, Whittle Place · KA11 4HR",Simons Repairs,Whittle Place,KA11 4HR,55.612009,-4.642123,1,2025-10-20,12
KB,"KB · Auto-tec Scotland, 5 Queen Street · PA14 5EF","Auto-tec Scotland, 5 Queen Street",,PA14 5EF,55.936503,-4.688845,1,2025-10-10,13
KB,"KB · Nimmo Coachworks, Bentinck Street · KA1 4AS",Nimmo Coachworks,Bentinck Street,KA1 4AS,55.602694,-4.494334,1,2025-09-29,14
KB,KB · Kitchener Street · ML2 7JQ,Kitchener Street,,ML2 7JQ,55.777451,-3.922807,1,2025-09-25,15
KB,"KB · Hatties, Nisbett Street · ML6 8RJ",Hatties,Nisbett Street,ML6 8RJ,55.844676,-3.943647,1,2025-09-12,16
KB,"KB · Dentzap, Block 14 · G32 8RG",Dentzap,Block 14,G32 8RG,55.825939,-4.169293,1,2025-08-08,17
KB,KB · Ardgowan Street · PA14 5DG,Ardgowan Street,,PA14 5DG,55.936683,-4.704023,1,2025-08-05,18
KB,KB · Sir Michael Place · PA15 1PG,Sir Michael Place,,PA15 1PG,55.948063,-4.761122,1,2025-07-01,19
KB,"KB · Dentzap - Block 14, Clydesmill Drive · G32 8RG",Dentzap - Block 14,Clydesmill Drive,G32 8RG,55.825939,-4.169293,1,2025-06-25,20
KB,"KB · Premier 1 Accident Repair Centre, 45 Boundary Road · KA8 9DJ",Premier 1 Accident Repair Centre,45 Boundary Road,KA8 9DJ,55.482265,-4.603686,1,2025-06-20,21
KB,KB · Denny · FK6 5NA,Denny,,FK6 5NA,56.004744,-3.938611,1,2025-06-04,22
KB,KB · 10 Bentinck Street · KA1 4AS,10 Bentinck Street,,KA1 4AS,55.602694,-4.494334,1,2025-05-02,23
KB,"KB · Hatties Autobody Repairs, Unit 3E Monklands Industrial Estate · ML5 4RP",Hatties Autobody Repairs,Unit 3E Monklands Industrial Estate,ML5 4RP,55.842617,-4.032093,1,2024-09-06,24
KB,KB · 19/12 Murdoch Terrace · EH11 1BB,19/12 Murdoch Terrace,,EH11 1BB,55.939371,-3.217288,1,2024-08-28,25
KB,"KB · Dentzap Limited, Clydesmill Drive · G32 8RG",Dentzap Limited,Clydesmill Drive,G32 8RG,55.825939,-4.169293,1,2024-07-29,26
KB,KB · Langhill Drive · G68 9AP,Langhill Drive,,G68 9AP,55.953232,-4.010403,1,2024-07-26,27
KB,"KB · Cam Recovery, Manse Brae · PA31 8RB",Cam Recovery,Manse Brae,PA31 8RB,56.039559,-5.430617,1,2024-06-11,28
KBS,KBS · St Andrews Industrial Estate · B9 4QB,St Andrews Industrial Estate,,B9 4QB,52.478374,-1.867469,61,2026-06-10,1
KBS,KBS · Uttoxeter Road · ST3 5LQ,Uttoxeter Road,,ST3 5LQ,52.982741,-2.120544,28,2026-06-18,2
KBS,"KBS · Expert Claims, Uttoxeter Road · ST3 5LQ",Expert Claims,Uttoxeter Road,ST3 5LQ,52.982741,-2.120544,27,2026-06-11,3
KBS,"KBS · APEX Hire, Camelot Way · B10 0ND",APEX Hire,Camelot Way,B10 0ND,52.468858,-1.863331,12,2025-12-02,4
KBS,"KBS · 295 Uttoxeter Road, 295 Uttoxeter Road · ST3 5LQ",295 Uttoxeter Road,295 Uttoxeter Road,ST3 5LQ,52.982741,-2.120544,10,2026-05-11,5
KBS,"KBS · Prestige Recovery, St Andrews Industrial Estate · B9 4QB",Prestige Recovery,St Andrews Industrial Estate,B9 4QB,52.478374,-1.867469,9,2025-01-29,6
KBS,KBS · 25 Camelot Way · B10 0ND,25 Camelot Way,,B10 0ND,52.468858,-1.863331,8,2026-02-02,7
KBS,"KBS · Unit 7 - 8, St Andrews Industrial Estate · B9 4QB",Unit 7 - 8,St Andrews Industrial Estate,B9 4QB,52.478374,-1.867469,7,2026-06-18,8
KBS,KBS · King Street · ST4 3EF,King Street,,ST4 3EF,52.993898,-2.143697,6,2026-06-22,9
KBS,"KBS · Apex Hire, 25 Camelot Way",Apex Hire,25 Camelot Way,,,,6,2026-05-12,10
KBS,"KBS · Rapid Car Storage, Unit 8, 409 King Street · ST4 3EF",Rapid Car Storage,"Unit 8, 409 King Street",ST4 3EF,52.993898,-2.143697,6,2026-05-05,11
KBS,"KBS · Apex Hire, 25 Camelot Way · B10 0ND",Apex Hire,25 Camelot Way,B10 0ND,52.468858,-1.863331,6,2025-01-17,12
KBS,KBS · Camelot Way · B10 0ND,Camelot Way,,B10 0ND,52.468858,-1.863331,4,2025-11-28,13
KBS,KBS · Belgrave Road · ST3 4PR,Belgrave Road,,ST3 4PR,52.979677,-2.135592,3,2026-06-22,14
KBS,"KBS · Unit 8, 409 King Street, Unit 8, 409 King Street · ST4 3EF","Unit 8, 409 King Street","Unit 8, 409 King Street",ST4 3EF,52.993898,-2.143697,3,2026-06-03,15
KBS,"KBS · Expert Claims, 295 Uttoxeter Road · ST3 5LQ",Expert Claims,295 Uttoxeter Road,ST3 5LQ,52.982741,-2.120544,3,2026-03-18,16
KBS,"KBS · Drive Style Hire, 7-8 Sydney Road · B9 4QB",Drive Style Hire,7-8 Sydney Road,B9 4QB,52.478374,-1.867469,2,2026-06-03,17
KBS,KBS · 25 Camelot Way,25 Camelot Way,,,,,2,2026-01-23,18
KBS,"KBS · Prestige Recovery & Storage, St Andrews Industrial Estate · B9 4QB",Prestige Recovery & Storage,St Andrews Industrial Estate,B9 4QB,52.478374,-1.867469,2,2025-12-04,19
KBS,KBS · High Street · DY5 3HX,High Street,,DY5 3HX,52.486255,-2.127361,2,2024-08-27,20
KBS,"KBS · Apex Hire, Camelot Way · B25 0LD",Apex Hire,Camelot Way,B25 0LD,,,2,2024-07-18,21
KBS,"KBS · 295 Uttoxeter Road, Stoke-On-Trent · ST3 5LQ",295 Uttoxeter Road,Stoke-On-Trent,ST3 5LQ,52.982741,-2.120544,1,2026-06-15,22
KBS,KBS · 409 King Street · ST4 3EF,409 King Street,,ST4 3EF,52.993898,-2.143697,1,2026-06-10,23
KBS,"KBS · Unit 408, King Street · ST4 3EF","Unit 408, King Street",,ST4 3EF,52.993898,-2.143697,1,2026-06-05,24
KBS,"KBS · Rapid Claims Bureau, 92 Waterloo Road · ST6 3EX",Rapid Claims Bureau,92 Waterloo Road,ST6 3EX,53.042556,-2.194094,1,2026-06-02,25
KBS,KBS · 8 Avenue Road · ST4 2DT,8 Avenue Road,,ST4 2DT,53.012939,-2.181782,1,2026-05-27,26
KBS,"KBS · Unit 7 - 8 St Andrews Industrial Estate, Sydney Road · B9 4QB",Unit 7 - 8 St Andrews Industrial Estate,Sydney Road,B9 4QB,52.478374,-1.867469,1,2026-05-22,27
KBS,KBS · Unit 7-8 · B9 4QB,Unit 7-8,,B9 4QB,52.478374,-1.867469,1,2026-05-21,28
KBS,KBS · Oxford Grove · BL1 4JH,Oxford Grove,,BL1 4JH,53.587797,-2.451762,1,2026-05-20,29
KBS,"KBS · King Street, StokeOnTrent · ST4 3EF",King Street,StokeOnTrent,ST4 3EF,52.993898,-2.143697,1,2026-05-08,30
KBS,KBS · The Railway Yard · WR5 1DS,The Railway Yard,,WR5 1DS,52.190108,-2.208782,1,2026-04-23,31
KBS,KBS · Inglefield Road · B33 8DE,Inglefield Road,,B33 8DE,52.482888,-1.797687,1,2026-04-13,32
KBS,KBS · Boughton Avenue · DN15 8EY,Boughton Avenue,,DN15 8EY,53.593548,-0.662974,1,2026-03-03,33
KBS,"KBS · Rapid Car Storage, King Street · ST4 3EF",Rapid Car Storage,King Street,ST4 3EF,52.993898,-2.143697,1,2026-02-20,34
KBS,KBS · 227 Marton Road · TS4 2ES,227 Marton Road,,TS4 2ES,54.568962,-1.224853,1,2026-02-06,35
KBS,KBS · Bradford Road · B36 9AQ,Bradford Road,,B36 9AQ,52.501907,-1.780598,1,2026-01-19,36
KBS,KBS · The Ring · B25 8QD,The Ring,,B25 8QD,52.469434,-1.822686,1,2025-12-01,37
KBS,KBS · Edmonton Grove · ST2 7PQ,Edmonton Grove,,ST2 7PQ,53.049675,-2.150894,1,2025-11-18,38
KBS,KBS · Eaton Street · ST1 2DQ,Eaton Street,,ST1 2DQ,53.028455,-2.168473,1,2025-10-14,39
KBS,KBS · 10 Eton Road · TS5 5EP,10 Eton Road,,TS5 5EP,54.555316,-1.258694,1,2025-07-17,40
KBS,KBS · 15 Eversley Road · ST3 4PY,15 Eversley Road,,ST3 4PY,52.980548,-2.120016,1,2025-05-14,41
KBS,KBS · 47 Kingfisher Drive,47 Kingfisher Drive,,,,,1,2025-03-19,42
KBS,KBS · Prestwich Avenue · WR5 1QF,Prestwich Avenue,,WR5 1QF,52.186859,-2.194944,1,2025-02-19,43
KBS,KBS · Parliament Road · TS1 4LF,Parliament Road,,TS1 4LF,54.567475,-1.241214,1,2025-01-30,44
KBS,KBS · Washwood Heath Road · B8 2HB,Washwood Heath Road,,B8 2HB,52.493832,-1.834680,1,2025-01-29,45
KBS,"KBS · Apex, Camelot Way · B10 0ND",Apex,Camelot Way,B10 0ND,52.468858,-1.863331,1,2025-01-28,46
KBS,KBS · 29 Balmoral Way · WS2 7RL,29 Balmoral Way,,WS2 7RL,52.597098,-2.008322,1,2025-01-13,47
KBS,KBS · Grange Road South · SK14 5NU,Grange Road South,,SK14 5NU,53.444028,-2.064518,1,2025-01-09,48
KBS,KBS · Coventry Road · B10 0SE,Coventry Road,,B10 0SE,52.473714,-1.872753,1,2025-01-06,49
KBS,"KBS · Expert Claims Ltd, Uttoxeter Road · ST3 5LQ",Expert Claims Ltd,Uttoxeter Road,ST3 5LQ,52.982741,-2.120544,1,2024-12-17,50
KBS,KBS · White Street · B12 8SF,White Street,,B12 8SF,52.455488,-1.878044,1,2024-12-17,51
KBS,"KBS · Ask Enterprises Derby Ltd, Rutland Street · DE23 8PS",Ask Enterprises Derby Ltd,Rutland Street,DE23 8PS,52.903178,-1.477135,1,2024-11-29,52
KBS,KBS · 12 Withdean Close · B11 2QE,12 Withdean Close,,B11 2QE,52.458055,-1.858096,1,2024-10-29,53
KBS,KBS · The Fensway · B34 6EY,The Fensway,,B34 6EY,52.491297,-1.789577,1,2024-09-27,54
KBS,KBS · Crown Street · B66 4SP,Crown Street,,B66 4SP,52.485767,-1.953711,1,2024-09-25,55
KBS,KBS · Belmont Road · WV4 5UE,Belmont Road,,WV4 5UE,52.565205,-2.142962,1,2024-08-12,56
KBS,"KBS · Prestige Recovery Services, Belgrave Road · ST3 4PR",Prestige Recovery Services,Belgrave Road,ST3 4PR,52.979677,-2.135592,1,2024-07-25,57
KBS,KBS · 100 Bordesley Green · B9 4TS,100 Bordesley Green,,B9 4TS,52.476718,-1.857624,1,2024-06-07,58
KERR,"KERR · G M Bodyshop, 18 Dellingburn Street · PA15 4TW",G M Bodyshop,18 Dellingburn Street,PA15 4TW,55.943395,-4.753214,2,2026-01-22,1
KERR,"KERR · Hatties Autobody Repairs, Nisbett Street · ML6 8RJ",Hatties Autobody Repairs,Nisbett Street,ML6 8RJ,55.844676,-3.943647,1,2026-06-15,2
KERR,"KERR · John Gemmell Coachworks, 4 Market Pl · KA18 2BH",John Gemmell Coachworks,4 Market Pl,KA18 2BH,55.471540,-4.297323,1,2026-06-09,3
KERR,KERR · Denny Auto Services · FK6 6QE,Denny Auto Services,,FK6 6QE,56.025942,-3.901191,1,2026-06-02,4
KERR,KERR · Paint Tech Smart Repairs · EH21 7UQ,Paint Tech Smart Repairs,,EH21 7UQ,55.936456,-3.060174,1,2026-06-01,5
KERR,"KERR · Myles Coachworks, Green Street · KA8 8AD",Myles Coachworks,Green Street,KA8 8AD,55.467346,-4.633397,1,2026-03-30,6
KERR,"KERR · Hatties Auto Repair, Nisbett Street · ML6 8RJ",Hatties Auto Repair,Nisbett Street,ML6 8RJ,55.844676,-3.943647,1,2026-02-13,7
KERR,"KERR · Dunedin Autos T/A D A Body Shop, Stewart Street · ML5 2BX",Dunedin Autos T/A D A Body Shop,Stewart Street,ML5 2BX,55.867685,-4.026435,1,2026-02-10,8
KERR,KERR · Kennoway Road · KY8 5BY,Kennoway Road,,KY8 5BY,56.193693,-3.053415,1,2026-02-06,9
KERR,KERR · 29-31 Kitchener Street · ML2 7JQ,29-31 Kitchener Street,,ML2 7JQ,55.777451,-3.922807,1,2026-01-12,10
KERR,"KERR · Dunedin Autos T/As D A Body Shop, Stewart Street · ML5 2BX",Dunedin Autos T/As D A Body Shop,Stewart Street,ML5 2BX,55.867685,-4.026435,1,2025-12-18,11
KERR,"KERR · Dentzap, Block 14 · G32 8RG",Dentzap,Block 14,G32 8RG,55.825939,-4.169293,1,2025-12-17,12
KERR,"KERR · Premier 1 Accident Repair Centre, 45 Boundary Road · KA8 9DJ",Premier 1 Accident Repair Centre,45 Boundary Road,KA8 9DJ,55.482265,-4.603686,1,2025-12-09,13
KHS,"KHS · HSI Solutions, Carr Bottom Road · BD5 9BP",HSI Solutions,Carr Bottom Road,BD5 9BP,53.769958,-1.767521,1,2026-01-06,1
KMR,"KMR · Chorlton Street, Chorlton Street · M1 3HW",Chorlton Street,Chorlton Street,M1 3HW,53.477572,-2.236348,43,2026-05-21,1
KMR,"KMR · 16 Chorlton Street, 16 Chorlton Street · M1 3HW",16 Chorlton Street,16 Chorlton Street,M1 3HW,53.477572,-2.236348,11,2026-05-14,2
KMR,"KMR · Streetrax Ltd, 16 Chorlton Street · M1 3HW",Streetrax Ltd,16 Chorlton Street,M1 3HW,53.477572,-2.236348,10,2026-04-07,3
KMR,KMR · Car Rental Back Up Area · CM24 1RR,Car Rental Back Up Area,,CM24 1RR,51.881421,0.250965,4,2026-04-24,4
KMR,KMR · Winders Way · M6 6BU,Winders Way,,M6 6BU,53.494356,-2.273220,3,2025-12-23,5
KMR,KMR · Sedgley Park Trading Estate · M25 9WD,Sedgley Park Trading Estate,,M25 9WD,53.517673,-2.272797,2,2025-11-17,6
KMR,"KMR · Unit 3, Broughton Road East · M6 6AQ","Unit 3, Broughton Road East",,M6 6AQ,53.495173,-2.273346,2,2025-05-06,7
KMR,"KMR · 16 Chorlton Street, Manchester · M1 3HW",16 Chorlton Street,Manchester,M1 3HW,53.477572,-2.236348,1,2026-06-16,8
KMR,KMR · Ravenswood Road · M32 0RT,Ravenswood Road,,M32 0RT,53.460396,-2.293141,1,2026-03-09,9
KMR,KMR · Nevada Street · M13 9GQ,Nevada Street,,M13 9GQ,53.463443,-2.217006,1,2026-01-29,10
KMR,KMR · Kings Road · M21 0XX,Kings Road,,M21 0XX,53.441812,-2.259938,1,2025-11-19,11
KMR,KMR · 31 Crofters Fold · LA2 0RB,31 Crofters Fold,,LA2 0RB,53.994414,-2.786191,1,2025-08-22,12
KMR,KMR · 16 Chorlton Street,16 Chorlton Street,,,,,1,2025-08-01,13
KMR,KMR · Chorlton Street · M1 3HY,Chorlton Street,,M1 3HY,53.478173,-2.236758,1,2025-06-27,14
KMR,KMR · North Front · SO14 1LJ,North Front,,SO14 1LJ,50.906337,-1.400502,1,2025-06-03,15
KMR,KMR · Olympic House · M90 1QX,Olympic House,,M90 1QX,53.361897,-2.270840,1,2025-05-30,16
KMR,KMR · Unit 7 Sedgley Park Trading Estate · M25 9WD,Unit 7 Sedgley Park Trading Estate,,M25 9WD,53.517673,-2.272797,1,2025-05-30,17
KMR,KMR · Coopers End Road · CM24 1RR,Coopers End Road,,CM24 1RR,51.881421,0.250965,1,2025-05-20,18
KMR,KMR · Seaford Road · M6 6AQ,Seaford Road,,M6 6AQ,53.495173,-2.273346,1,2025-05-14,19
KMR,"KMR · Manchester Airport, Olympic House · M90 1QX",Manchester Airport,Olympic House,M90 1QX,53.361897,-2.270840,1,2025-03-12,20
KMR,"KMR · Unit 3, Broughtoun Road East, Seaford Road · M6 6AQ","Unit 3, Broughtoun Road East",Seaford Road,M6 6AQ,53.495173,-2.273346,1,2025-03-12,21
KMR,KMR · Leighton Hospital · CW1 4QJ,Leighton Hospital,,CW1 4QJ,53.117701,-2.475863,1,2025-02-18,22
KMR,KMR · Broughton Road East · M6 6AQ,Broughton Road East,,M6 6AQ,53.495173,-2.273346,1,2025-01-31,23
KMR,KMR · Milton Road · M32 0TQ,Milton Road,,M32 0TQ,53.452910,-2.295996,1,2025-01-28,24
KMR,"KMR · Streets Cars House, 16 Chorlton Street · M1 3HW",Streets Cars House,16 Chorlton Street,M1 3HW,53.477572,-2.236348,1,2024-09-03,25
KMR,"KMR · Street Cars House, 16 Chorlton Street · M1 3HW",Street Cars House,16 Chorlton Street,M1 3HW,53.477572,-2.236348,1,2024-08-07,26
KMR,KMR · Stamford Road · M13 0SE,Stamford Road,,M13 0SE,53.454934,-2.199599,1,2024-08-05,27
LEIGH,LEIGH · 153 Kinross Crescent · LU3 3JX,153 Kinross Crescent,,LU3 3JX,51.923543,-0.464580,1,2025-07-25,1
LEX,LEX · Cariocca Business Park · M12 4AH,Cariocca Business Park,,M12 4AH,53.468692,-2.217364,3,2024-07-26,1
LEX,"LEX · HS Recovery & Storage, William Street · M12 5FX",HS Recovery & Storage,William Street,M12 5FX,53.475020,-2.217185,3,2024-07-10,2
LEX,"LEX · HS Recovery & Storage Ltd, William Street · M12 5FX",HS Recovery & Storage Ltd,William Street,M12 5FX,53.475020,-2.217185,1,2024-07-10,3
LEX,"LEX · Autoclaims Recovery, Unit 2, Broadbent Road · OL1 4HY",Autoclaims Recovery,"Unit 2, Broadbent Road",OL1 4HY,53.554634,-2.086783,1,2024-06-04,4
M,"M · White Moss Farm House, Heathey Lane",White Moss Farm House,Heathey Lane,,,,1,2026-03-26,1
MATT,MATT · Cranleigh Gardens · IG11 9TJ,Cranleigh Gardens,,IG11 9TJ,51.541063,0.085255,1,2025-07-21,1
MBH,MBH · 219 Slade Lane · M19 2EX,219 Slade Lane,,M19 2EX,53.442729,-2.198955,3,2024-10-09,1
MBH,MBH · Slade Lane · M19 2EX,Slade Lane,,M19 2EX,53.442729,-2.198955,2,2025-04-16,2
MBH,MBH · 219 Slade Lane,219 Slade Lane,,,,,1,2025-04-15,3
MBH,"MBH · FAO The Court, C/o Parkers Motorbodies",FAO The Court,C/o Parkers Motorbodies,,,,1,2025-03-26,4
MBH,MBH · Bowden Way · CV3 2HU,Bowden Way,,CV3 2HU,52.400764,-1.449251,1,2025-02-26,5
MBH,MBH · 2 Drury Street · M19 3PQ,2 Drury Street,,M19 3PQ,53.443777,-2.190544,1,2024-10-11,6
MBH,"MBH · Parkers Motor Body Clinic Ltd, Drury Street · M19 3PQ",Parkers Motor Body Clinic Ltd,Drury Street,M19 3PQ,53.443777,-2.190544,1,2024-09-09,7
MBH,MBH · St Marys Road · NW10 4AT,St Marys Road,,NW10 4AT,51.541368,-0.249677,1,2024-06-27,8
MCADE,MCADE · 110 Marsh Road · LU3 2NL,110 Marsh Road,,LU3 2NL,51.902812,-0.451057,2,2025-11-13,1
MCADE,MCADE · 47-49 Park Street · LU1 3JX,47-49 Park Street,,LU1 3JX,51.877352,-0.411008,1,2025-09-19,2
MCADE,MCADE · Park Street · LU1 3JX,Park Street,,LU1 3JX,51.877352,-0.411008,1,2025-05-20,3
MONACO,"MONACO · Monaco Motor Group Limited, Barking Industrial Park · IG11 0TJ",Monaco Motor Group Limited,Barking Industrial Park,IG11 0TJ,51.532852,0.102932,1,2024-07-08,1
MONACO,"MONACO · The Old Gas Works, Southend Road · E6 2AS",The Old Gas Works,Southend Road,E6 2AS,51.541446,0.062588,1,2024-07-08,2
MORAFIQ,MORAFIQ · 450 Herries Road · S5 8TP,450 Herries Road,,S5 8TP,53.411958,-1.475436,1,2025-10-28,1
MOTORX,MOTORX · 47-49 Park Street · LU1 3JX,47-49 Park Street,,LU1 3JX,51.877352,-0.411008,7,2026-04-08,1
MOTORX,"MOTORX · VH Recovery, 1e North Crescent · E16 4TG",VH Recovery,1e North Crescent,E16 4TG,51.523167,0.000136,2,2026-05-28,2
MOTORX,"MOTORX · 99 Iveagh Court, Alexandra Road · HP2 5DW",99 Iveagh Court,Alexandra Road,HP2 5DW,51.756489,-0.471792,1,2026-06-03,3
MOTORX,MOTORX · Ripple Road · IG11 9PG,Ripple Road,,IG11 9PG,51.534008,0.104644,1,2026-06-03,4
MOTORX,MOTORX · Argall Avenue · E10 7QE,Argall Avenue,,E10 7QE,51.570192,-0.041078,1,2026-05-05,5
MOTORX,"MOTORX · Flat 2 Doveton House, Doveton Street · E1 4HL",Flat 2 Doveton House,Doveton Street,E1 4HL,51.523278,-0.053543,1,2026-04-08,6
MOTORX,"MOTORX · VH Recovery, North Crescent · E16 4TG",VH Recovery,North Crescent,E16 4TG,51.523167,0.000136,1,2026-04-02,7
MOTORX,MOTORX · Longbridge Road · RM8 2DD,Longbridge Road,,RM8 2DD,51.552215,0.110835,1,2026-02-19,8
MOTORX,"MOTORX · VH Storage, Maltings Close · E3 3TE",VH Storage,Maltings Close,E3 3TE,51.524181,-0.008772,1,2025-11-26,9
MOTORX,MOTORX · 51 Verde Close · LU2 7FL,51 Verde Close,,LU2 7FL,51.895698,-0.405900,1,2025-11-21,10
MOTORX,MOTORX · 64 Luton Road · LU5 4JN,64 Luton Road,,LU5 4JN,51.888224,-0.504336,1,2025-10-29,11
MOTORX,MOTORX · Byron Road · LU4 0HX,Byron Road,,LU4 0HX,51.894300,-0.480329,1,2025-10-29,12
MOTORX,MOTORX · Grafton Road · RM8 3EU,Grafton Road,,RM8 3EU,51.557355,0.139364,1,2025-09-26,13
MOTORX,MOTORX · Hazeldene Road · IG3 9RA,Hazeldene Road,,IG3 9RA,51.560739,0.115904,1,2025-09-10,14
MOTORX,MOTORX · 34 Wimborne Road · LU1 1PD,34 Wimborne Road,,LU1 1PD,51.883300,-0.432056,1,2025-09-02,15
MOTORX,MOTORX · Lomas Street · E1 5BG,Lomas Street,,E1 5BG,51.520609,-0.063459,1,2025-08-11,16
MOTORX,MOTORX · Albert Gardens · E1 0LH,Albert Gardens,,E1 0LH,51.512282,-0.047166,1,2025-07-22,17
MOTORX,MOTORX · Peregrine Road · IG6 3XH,Peregrine Road,,IG6 3XH,51.610828,0.123433,1,2025-06-25,18
MOTORX,MOTORX · MotorX · LU1 3JX,MotorX,,LU1 3JX,51.877352,-0.411008,1,2025-05-28,19
MOTORX,MOTORX · North Tenter Street · E1 8DL,North Tenter Street,,E1 8DL,51.513287,-0.071523,1,2025-05-16,20
MP,"MP · Rose Hill Works, Nelson Street · BL3 2RW",Rose Hill Works,Nelson Street,BL3 2RW,53.567704,-2.420790,37,2026-06-19,1
MP,MP · Nelson Street · BL3 2RW,Nelson Street,,BL3 2RW,53.567704,-2.420790,32,2025-10-20,2
MP,MP · Aldrington Road · SW16 1TA,Aldrington Road,,SW16 1TA,51.425596,-0.142652,30,2026-05-26,3
MP,MP · High Street · BL3 6SR,High Street,,BL3 6SR,53.566846,-2.436922,10,2026-03-09,4
MP,MP · Rose Hill Works · BL3 2RW,Rose Hill Works,,BL3 2RW,53.567704,-2.420790,6,2026-06-08,5
MP,"MP · London Street Trading Estate, London Street Trading Estate High Street · BL3 6SR",London Street Trading Estate,London Street Trading Estate High Street,BL3 6SR,53.566846,-2.436922,6,2025-12-08,6
MP,MP · Unit B3 · BL3 6SR,Unit B3,,BL3 6SR,53.566846,-2.436922,4,2026-06-12,7
MP,"MP · Unit B3 - London Street Trading Estate, High Street · BL3 6SR",Unit B3 - London Street Trading Estate,High Street,BL3 6SR,53.566846,-2.436922,4,2026-03-18,8
MP,"MP · Omar Autos Ltd, Mitcham Lane · SW16 6LJ",Omar Autos Ltd,Mitcham Lane,SW16 6LJ,51.427144,-0.134189,3,2026-06-22,9
MP,"MP · Unit B3, London Street Trading Estate · BL3 6SR",Unit B3,London Street Trading Estate,BL3 6SR,53.566846,-2.436922,3,2026-06-17,10
MP,"MP · Unit B3, London Trading Estate · BL3 6SR","Unit B3, London Trading Estate",,BL3 6SR,53.566846,-2.436922,3,2026-02-23,11
MP,MP · North Park Street · WF13 4LU,North Park Street,,WF13 4LU,53.696705,-1.646383,3,2026-02-09,12
MP,MP · Blythswood Road,Blythswood Road,,,,,3,2026-01-15,13
MP,MP · Omar Autos Ltd · SW16 6LJ,Omar Autos Ltd,,SW16 6LJ,51.427144,-0.134189,2,2026-06-12,14
MP,"MP · Unit 3, London Street Trading Estate, High Street · BL3 6SR","Unit 3, London Street Trading Estate",High Street,BL3 6SR,53.566846,-2.436922,2,2025-11-25,15
MP,MP · Raynham Road,Raynham Road,,,,,2,2025-05-27,16
MP,MP · Cavendish Gardens · BL3 3GB,Cavendish Gardens,,BL3 3GB,53.562307,-2.446704,2,2025-05-15,17
MP,"MP · Unit B3, High Street · BL3 6SR",Unit B3,High Street,BL3 6SR,53.566846,-2.436922,2,2025-04-11,18
MP,MP · Atholl Road · IG3 8YU,Atholl Road,,IG3 8YU,51.568644,0.110889,2,2025-04-07,19
MP,MP · Mitcham Lane · SW16 6LJ,Mitcham Lane,,SW16 6LJ,51.427144,-0.134189,2,2024-09-10,20
MP,MP · 27 West Leigh Road · BB1 8JR,27 West Leigh Road,,BB1 8JR,53.761049,-2.495774,1,2026-06-22,21
MP,MP · Larkshall Road · E4 6PD,Larkshall Road,,E4 6PD,51.624745,0.001825,1,2026-06-22,22
MP,MP · Greenwood Road · CR4 1PF,Greenwood Road,,CR4 1PF,51.400979,-0.136749,1,2026-06-19,23
MP,MP · 15 Ellerslie Gardens · NW10 3TB,15 Ellerslie Gardens,,NW10 3TB,51.540714,-0.235411,1,2026-06-09,24
MP,MP · Windmill Avenue · UB2 4XE,Windmill Avenue,,UB2 4XE,51.507193,-0.353789,1,2026-05-13,25
MP,MP · 2c Seymour Road · M8 5BG,2c Seymour Road,,M8 5BG,53.515027,-2.244866,1,2026-05-07,26
MP,MP · Bridgeman Street · BL3 6BS,Bridgeman Street,,BL3 6BS,53.571495,-2.428756,1,2026-04-28,27
MP,MP · Lewisham Park · SE13 6QZ,Lewisham Park,,SE13 6QZ,51.451923,-0.012466,1,2026-04-24,28
MP,MP · Aneford Road · LE4 9BA,Aneford Road,,LE4 9BA,52.651279,-1.096062,1,2026-04-23,29
MP,MP · Geary Road · NW10 1HR,Geary Road,,NW10 1HR,51.554200,-0.232235,1,2026-04-21,30
MP,MP · Forest Road,Forest Road,,,,,1,2026-04-10,31
MP,MP · Horns Road,Horns Road,,,,,1,2026-04-10,32
MP,MP · Gertrude Road · NR3 4RW,Gertrude Road,,NR3 4RW,52.641050,1.306973,1,2026-03-27,33
MP,MP · Sharples Avenue · BL1 7HB,Sharples Avenue,,BL1 7HB,53.609297,-2.432298,1,2026-03-20,34
MP,MP · St Asaphs Court · SE4 2EE,St Asaphs Court,,SE4 2EE,51.466270,-0.050111,1,2026-03-20,35
MP,MP · Bromley Road · SE6 2TS,Bromley Road,,SE6 2TS,51.442937,-0.019792,1,2026-03-19,36
MP,MP · Falcon Road · SW11 2PG,Falcon Road,,SW11 2PG,51.468028,-0.170345,1,2026-03-19,37
MP,MP · Howcroft Street · BL3 5LF,Howcroft Street,,BL3 5LF,53.569367,-2.445601,1,2026-03-19,38
MP,MP · Whitton Close · DN4 7RD,Whitton Close,,DN4 7RD,53.501207,-1.093656,1,2026-03-19,39
MP,MP · Braemar Avenue · NW10 0DY,Braemar Avenue,,NW10 0DY,51.563564,-0.258304,1,2026-03-13,40
MP,MP · Lovelinch Close · SE15 1HE,Lovelinch Close,,SE15 1HE,51.482639,-0.050781,1,2026-02-26,41
MP,MP · John Fisher Street · E1 8HA,John Fisher Street,,E1 8HA,51.510351,-0.069024,1,2026-02-19,42
MP,"MP · Unit B3, London Street Trading Street · BL3 6SR","Unit B3, London Street Trading Street",,BL3 6SR,53.566846,-2.436922,1,2026-02-09,43
MP,"MP · Victoria Mill, Bradford Road · BL3 2HF",Victoria Mill,Bradford Road,BL3 2HF,53.563308,-2.420837,1,2026-01-26,44
MP,MP · 17 Hampshire Close · BL9 9EZ,17 Hampshire Close,,BL9 9EZ,53.584152,-2.283482,1,2026-01-21,45
MP,MP · Solomon Avenue · N9 0SQ,Solomon Avenue,,N9 0SQ,51.619043,-0.064054,1,2026-01-21,46
MP,MP · Gipsy Hill · SE19 1QL,Gipsy Hill,,SE19 1QL,51.425258,-0.084237,1,2026-01-16,47
MP,MP · 1 Knowsley Street · M8 8QN,1 Knowsley Street,,M8 8QN,53.493028,-2.238438,1,2026-01-13,48
MP,MP · Hurst Street · BL9 7ES,Hurst Street,,BL9 7ES,53.590804,-2.283254,1,2025-12-29,49
MP,MP · Overton Road · SW9 7QN,Overton Road,,SW9 7QN,51.469525,-0.111036,1,2025-12-23,50
MP,MP · Opossum Way · TW4 7PA,Opossum Way,,TW4 7PA,51.471512,-0.398687,1,2025-12-12,51
MP,MP · 24 Pleckfarmm Avenue · BB1 8PE,24 Pleckfarmm Avenue,,BB1 8PE,53.763962,-2.482505,1,2025-12-04,52
MP,MP · Silverdale Road · BL4 0HJ,Silverdale Road,,BL4 0HJ,53.552848,-2.422846,1,2025-12-04,53
MP,MP · Hendon Road · N9 7AU,Hendon Road,,N9 7AU,51.628119,-0.059333,1,2025-11-26,54
MP,MP · Wynter House · SW9 0UR,Wynter House,,SW9 0UR,51.467808,-0.115584,1,2025-11-20,55
MP,MP · 2 Cherry Avenue · BL9 7NA,2 Cherry Avenue,,BL9 7NA,53.596103,-2.273408,1,2025-11-14,56
